stop_id,stop_code,stop_name,stop_lon,stop_lat,stop_timezone,location_type,parent_station,platform_code
ac,ac,Abcoude,4.97677,52.278942,Europe/Amsterdam,1,,
ac|0,,Abcoude,4.97677,52.278942,,0,ac,
ac|2,,Abcoude Perron 2,4.97677,52.278942,,0,ac,2
ac|3,,Abcoude Perron 3,4.97677,52.278942,,0,ac,3
ah,ah,Arnhem,5.90136,51.984533,Europe/Amsterdam,1,,
ah|0,,Arnhem,5.90136,51.984533,,0,ah,
ah|10,,Arnhem Perron 10,5.90136,51.984533,,0,ah,10
ah|11,,Arnhem Perron 11,5.90136,51.984533,,0,ah,11
ah|3,,Arnhem Perron 3,5.90136,51.984533,,0,ah,3
ah|4,,Arnhem Perron 4,5.90136,51.984533,,0,ah,4
ah|6a,,Arnhem Perron 6a,5.90136,51.984533,,0,ah,6a
ah|6b,,Arnhem Perron 6b,5.90136,51.984533,,0,ah,6b
ah|7,,Arnhem Perron 7,5.90136,51.984533,,0,ah,7
ah|8,,Arnhem Perron 8,5.90136,51.984533,,0,ah,8
ah|9,,Arnhem Perron 9,5.90136,51.984533,,0,ah,9
ahbf,ahbf,Aachen Hbf,6.09053,50.768073,Europe/Amsterdam,1,,
ahbf|0,,Aachen Hbf,6.09053,50.768073,,0,ahbf,
ahp,ahp,Arnhem Velperpoort,5.92029,51.984899,Europe/Amsterdam,1,,
ahp|0,,Arnhem Velperpoort,5.92029,51.984899,,0,ahp,
ahp|1,,Arnhem Velperpoort Perron 1,5.92029,51.984899,,0,ahp,1
ahp|2,,Arnhem Velperpoort Perron 2,5.92029,51.984899,,0,ahp,2
ahpr,ahpr,Arnhem Presikhaaf,5.94303,51.987310,Europe/Amsterdam,1,,
ahpr|0,,Arnhem Presikhaaf,5.94303,51.987310,,0,ahpr,
ahpr|1,,Arnhem Presikhaaf Perron 1,5.94303,51.987310,,0,ahpr,1
ahpr|2,,Arnhem Presikhaaf Perron 2,5.94303,51.987310,,0,ahpr,2
ahz,ahz,Arnhem Zuid,5.85200,51.955167,Europe/Amsterdam,1,,
ahz|0,,Arnhem Zuid,5.85200,51.955167,,0,ahz,
ahz|1,,Arnhem Zuid Perron 1,5.85200,51.955167,,0,ahz,1
ahz|2,,Arnhem Zuid Perron 2,5.85200,51.955167,,0,ahz,2
aime,aime,Aime-la-Plagne,6.64760,45.549796,Europe/Amsterdam,1,,
aime|0,,Aime-la-Plagne,6.64760,45.549796,,0,aime,
aixtgv,aixtgv,Aix-en Provence TGV,5.31722,43.455000,Europe/Amsterdam,1,,
aixtgv|0,,Aix-en Provence TGV,5.31722,43.455000,,0,aixtgv,
akl,akl,Arkel,4.99297,51.872194,Europe/Amsterdam,1,,
akl|0,,Arkel,4.99297,51.872194,,0,akl,
akl|1,,Arkel Perron 1,4.99297,51.872194,,0,akl,1
akm,akm,Akkrum,5.84276,53.047619,Europe/Amsterdam,1,,
akm|0,,Akkrum,5.84276,53.047619,,0,akm,
akm|2,,Akkrum Perron 2,5.84276,53.047619,,0,akm,2
akm|3,,Akkrum Perron 3,5.84276,53.047619,,0,akm,3
albert,albert,Albertville,6.38465,45.660264,Europe/Amsterdam,1,,
albert|0,,Albertville,6.38465,45.660264,,0,albert,
alm,alm,Almere Centrum,5.21891,52.375163,Europe/Amsterdam,1,,
alm|0,,Almere Centrum,5.21891,52.375163,,0,alm,
alm|1,,Almere Centrum Perron 1,5.21891,52.375163,,0,alm,1
alm|2,,Almere Centrum Perron 2,5.21891,52.375163,,0,alm,2
alm|3,,Almere Centrum Perron 3,5.21891,52.375163,,0,alm,3
alm|4,,Almere Centrum Perron 4,5.21891,52.375163,,0,alm,4
almb,almb,Almere Buiten,5.27834,52.394466,Europe/Amsterdam,1,,
almb|0,,Almere Buiten,5.27834,52.394466,,0,almb,
almb|1,,Almere Buiten Perron 1,5.27834,52.394466,,0,almb,1
almb|2,,Almere Buiten Perron 2,5.27834,52.394466,,0,almb,2
almm,almm,Almere Muziekwijk,5.19061,52.367570,Europe/Amsterdam,1,,
almm|0,,Almere Muziekwijk,5.19061,52.367570,,0,almm,
almm|1,,Almere Muziekwijk Perron 1,5.19061,52.367570,,0,almm,1
almm|2,,Almere Muziekwijk Perron 2,5.19061,52.367570,,0,almm,2
almo,almo,Almere Oostvaarders,5.29830,52.403110,Europe/Amsterdam,1,,
almo|0,,Almere Oostvaarders,5.29830,52.403110,,0,almo,
almo|1,,Almere Oostvaarders Perron 1,5.29830,52.403110,,0,almo,1
almo|2,,Almere Oostvaarders Perron 2,5.29830,52.403110,,0,almo,2
almo|3,,Almere Oostvaarders Perron 3,5.29830,52.403110,,0,almo,3
almo|4,,Almere Oostvaarders Perron 4,5.29830,52.403110,,0,almo,4
almp,almp,Almere Parkwijk,5.24446,52.376994,Europe/Amsterdam,1,,
almp|0,,Almere Parkwijk,5.24446,52.376994,,0,almp,
almp|1,,Almere Parkwijk Perron 1,5.24446,52.376994,,0,almp,1
almp|2,,Almere Parkwijk Perron 2,5.24446,52.376994,,0,almp,2
amf,amf,Amersfoort,5.37391,52.153464,Europe/Amsterdam,1,,
amf|0,,Amersfoort,5.37391,52.153464,,0,amf,
amf|1,,Amersfoort Perron 1,5.37391,52.153464,,0,amf,1
amf|2,,Amersfoort Perron 2,5.37391,52.153464,,0,amf,2
amf|2a,,Amersfoort Perron 2a,5.37391,52.153464,,0,amf,2a
amf|2b,,Amersfoort Perron 2b,5.37391,52.153464,,0,amf,2b
amf|4a,,Amersfoort Perron 4a,5.37391,52.153464,,0,amf,4a
amf|4b,,Amersfoort Perron 4b,5.37391,52.153464,,0,amf,4b
amf|5a,,Amersfoort Perron 5a,5.37391,52.153464,,0,amf,5a
amf|5b,,Amersfoort Perron 5b,5.37391,52.153464,,0,amf,5b
amf|6,,Amersfoort Perron 6,5.37391,52.153464,,0,amf,6
amf|6a,,Amersfoort Perron 6a,5.37391,52.153464,,0,amf,6a
amf|6b,,Amersfoort Perron 6b,5.37391,52.153464,,0,amf,6b
amf|7,,Amersfoort Perron 7,5.37391,52.153464,,0,amf,7
amfs,amfs,Amersfoort Schothorst,5.40489,52.175484,Europe/Amsterdam,1,,
amfs|0,,Amersfoort Schothorst,5.40489,52.175484,,0,amfs,
amfs|1,,Amersfoort Schothorst Perron 1,5.40489,52.175484,,0,amfs,1
amfs|2,,Amersfoort Schothorst Perron 2,5.40489,52.175484,,0,amfs,2
amfs|3,,Amersfoort Schothorst Perron 3,5.40489,52.175484,,0,amfs,3
aml,aml,Almelo,6.65581,52.357156,Europe/Amsterdam,1,,
aml|0,,Almelo,6.65581,52.357156,,0,aml,
aml|2,,Almelo Perron 2,6.65581,52.357156,,0,aml,2
aml|2a,,Almelo Perron 2a,6.65581,52.357156,,0,aml,2a
aml|2b,,Almelo Perron 2b,6.65581,52.357156,,0,aml,2b
aml|3,,Almelo Perron 3,6.65581,52.357156,,0,aml,3
aml|4,,Almelo Perron 4,6.65581,52.357156,,0,aml,4
aml|4a,,Almelo Perron 4a,6.65581,52.357156,,0,aml,4a
aml|4b,,Almelo Perron 4b,6.65581,52.357156,,0,aml,4b
amr,amr,Alkmaar,4.74090,52.637843,Europe/Amsterdam,1,,
amr|0,,Alkmaar,4.74090,52.637843,,0,amr,
amr|1,,Alkmaar Perron 1,4.74090,52.637843,,0,amr,1
amr|2,,Alkmaar Perron 2,4.74090,52.637843,,0,amr,2
amr|3,,Alkmaar Perron 3,4.74090,52.637843,,0,amr,3
amr|4,,Alkmaar Perron 4,4.74090,52.637843,,0,amr,4
amr|5,,Alkmaar Perron 5,4.74090,52.637843,,0,amr,5
amri,amri,Almelo de Riet,6.66625,52.342393,Europe/Amsterdam,1,,
amri|0,,Almelo de Riet,6.66625,52.342393,,0,amri,
amri|1,,Almelo de Riet Perron 1,6.66625,52.342393,,0,amri,1
amri|2,,Almelo de Riet Perron 2,6.66625,52.342393,,0,amri,2
amrn,amrn,Alkmaar Noord,4.76386,52.643807,Europe/Amsterdam,1,,
amrn|0,,Alkmaar Noord,4.76386,52.643807,,0,amrn,
amrn|1,,Alkmaar Noord Perron 1,4.76386,52.643807,,0,amrn,1
amrn|2,,Alkmaar Noord Perron 2,4.76386,52.643807,,0,amrn,2
ana,ana,Anna Paulowna,4.81161,52.867643,Europe/Amsterdam,1,,
ana|0,,Anna Paulowna,4.81161,52.867643,,0,ana,
ana|1,,Anna Paulowna Perron 1,4.81161,52.867643,,0,ana,1
ana|2,,Anna Paulowna Perron 2,4.81161,52.867643,,0,ana,2
apd,apd,Apeldoorn,5.97038,52.209456,Europe/Amsterdam,1,,
apd|0,,Apeldoorn,5.97038,52.209456,,0,apd,
apd|1,,Apeldoorn Perron 1,5.97038,52.209456,,0,apd,1
apd|3,,Apeldoorn Perron 3,5.97038,52.209456,,0,apd,3
apd|4,,Apeldoorn Perron 4,5.97038,52.209456,,0,apd,4
apdm,apdm,Apeldoorn De Maten,6.00075,52.205257,Europe/Amsterdam,1,,
apdm|0,,Apeldoorn De Maten,6.00075,52.205257,,0,apdm,
apdm|1,,Apeldoorn De Maten Perron 1,6.00075,52.205257,,0,apdm,1
apdo,apdo,Apeldoorn Osseveld,6.00661,52.216102,Europe/Amsterdam,1,,
apdo|0,,Apeldoorn Osseveld,6.00661,52.216102,,0,apdo,
apdo|1,,Apeldoorn Osseveld Perron 1,6.00661,52.216102,,0,apdo,1
apdo|2,,Apeldoorn Osseveld Perron 2,6.00661,52.216102,,0,apdo,2
apg,apg,Appingedam,6.86195,53.325811,Europe/Amsterdam,1,,
apg|0,,Appingedam,6.86195,53.325811,,0,apg,
apg|1,,Appingedam Perron 1,6.86195,53.325811,,0,apg,1
apg|2,,Appingedam Perron 2,6.86195,53.325811,,0,apg,2
apn,apn,Alphen a/d Rijn,4.65780,52.124335,Europe/Amsterdam,1,,
apn|0,,Alphen a/d Rijn,4.65780,52.124335,,0,apn,
apn|2,,Alphen a/d Rijn Perron 2,4.65780,52.124335,,0,apn,2
apn|3,,Alphen a/d Rijn Perron 3,4.65780,52.124335,,0,apn,3
arn,arn,Arnemuiden,3.66978,51.501498,Europe/Amsterdam,1,,
arn|0,,Arnemuiden,3.66978,51.501498,,0,arn,
arn|1,,Arnemuiden Perron 1,3.66978,51.501498,,0,arn,1
arn|2,,Arnemuiden Perron 2,3.66978,51.501498,,0,arn,2
asa,asa,Amsterdam Amstel,4.91803,52.345862,Europe/Amsterdam,1,,
asa|0,,Amsterdam Amstel,4.91803,52.345862,,0,asa,
asa|1,,Amsterdam Amstel Perron 1,4.91803,52.345862,,0,asa,1
asa|4,,Amsterdam Amstel Perron 4,4.91803,52.345862,,0,asa,4
asb,asb,Amsterdam Bijlmer ArenA,4.94772,52.311553,Europe/Amsterdam,1,,
asb|0,,Amsterdam Bijlmer ArenA,4.94772,52.311553,,0,asb,
asb|1,,Amsterdam Bijlmer ArenA Perron 1,4.94772,52.311553,,0,asb,1
asb|2,,Amsterdam Bijlmer ArenA Perron 2,4.94772,52.311553,,0,asb,2
asb|3,,Amsterdam Bijlmer ArenA Perron 3,4.94772,52.311553,,0,asb,3
asb|6,,Amsterdam Bijlmer ArenA Perron 6,4.94772,52.311553,,0,asb,6
asb|7,,Amsterdam Bijlmer ArenA Perron 7,4.94772,52.311553,,0,asb,7
asb|8,,Amsterdam Bijlmer ArenA Perron 8,4.94772,52.311553,,0,asb,8
asch,asch,Aachen Schanz,6.07382,50.769702,Europe/Amsterdam,1,,
asch|0,,Aachen Schanz,6.07382,50.769702,,0,asch,
asd,asd,Amsterdam Centraal,4.90050,52.378686,Europe/Amsterdam,1,,
asd|0,,Amsterdam Centraal,4.90050,52.378686,,0,asd,
asd|1,,Amsterdam Centraal Perron 1,4.90050,52.378686,,0,asd,1
asd|10,,Amsterdam Centraal Perron 10,4.90050,52.378686,,0,asd,10
asd|10a,,Amsterdam Centraal Perron 10a,4.90050,52.378686,,0,asd,10a
asd|10b,,Amsterdam Centraal Perron 10b,4.90050,52.378686,,0,asd,10b
asd|11a,,Amsterdam Centraal Perron 11a,4.90050,52.378686,,0,asd,11a
asd|11b,,Amsterdam Centraal Perron 11b,4.90050,52.378686,,0,asd,11b
asd|13a,,Amsterdam Centraal Perron 13a,4.90050,52.378686,,0,asd,13a
asd|13b,,Amsterdam Centraal Perron 13b,4.90050,52.378686,,0,asd,13b
asd|14a,,Amsterdam Centraal Perron 14a,4.90050,52.378686,,0,asd,14a
asd|14b,,Amsterdam Centraal Perron 14b,4.90050,52.378686,,0,asd,14b
asd|15a,,Amsterdam Centraal Perron 15a,4.90050,52.378686,,0,asd,15a
asd|15b,,Amsterdam Centraal Perron 15b,4.90050,52.378686,,0,asd,15b
asd|2,,Amsterdam Centraal Perron 2,4.90050,52.378686,,0,asd,2
asd|2a,,Amsterdam Centraal Perron 2a,4.90050,52.378686,,0,asd,2a
asd|2b,,Amsterdam Centraal Perron 2b,4.90050,52.378686,,0,asd,2b
asd|4,,Amsterdam Centraal Perron 4,4.90050,52.378686,,0,asd,4
asd|4a,,Amsterdam Centraal Perron 4a,4.90050,52.378686,,0,asd,4a
asd|4b,,Amsterdam Centraal Perron 4b,4.90050,52.378686,,0,asd,4b
asd|5,,Amsterdam Centraal Perron 5,4.90050,52.378686,,0,asd,5
asd|5a,,Amsterdam Centraal Perron 5a,4.90050,52.378686,,0,asd,5a
asd|5b,,Amsterdam Centraal Perron 5b,4.90050,52.378686,,0,asd,5b
asd|7,,Amsterdam Centraal Perron 7,4.90050,52.378686,,0,asd,7
asd|7a,,Amsterdam Centraal Perron 7a,4.90050,52.378686,,0,asd,7a
asd|7b,,Amsterdam Centraal Perron 7b,4.90050,52.378686,,0,asd,7b
asd|8a,,Amsterdam Centraal Perron 8a,4.90050,52.378686,,0,asd,8a
asd|8b,,Amsterdam Centraal Perron 8b,4.90050,52.378686,,0,asd,8b
asdl,asdl,Amsterdam Lelylaan,4.83394,52.357902,Europe/Amsterdam,1,,
asdl|0,,Amsterdam Lelylaan,4.83394,52.357902,,0,asdl,
asdl|1,,Amsterdam Lelylaan Perron 1,4.83394,52.357902,,0,asdl,1
asdl|2,,Amsterdam Lelylaan Perron 2,4.83394,52.357902,,0,asdl,2
asdm,asdm,Amsterdam Muiderpoort,4.93123,52.360923,Europe/Amsterdam,1,,
asdm|0,,Amsterdam Muiderpoort,4.93123,52.360923,,0,asdm,
asdm|2,,Amsterdam Muiderpoort Perron 2,4.93123,52.360923,,0,asdm,2
asdm|3,,Amsterdam Muiderpoort Perron 3,4.93123,52.360923,,0,asdm,3
asdm|8,,Amsterdam Muiderpoort Perron 8,4.93123,52.360923,,0,asdm,8
asdm|9,,Amsterdam Muiderpoort Perron 9,4.93123,52.360923,,0,asdm,9
asdz,asdz,Amsterdam Zuid,4.87306,52.339024,Europe/Amsterdam,1,,
asdz|0,,Amsterdam Zuid,4.87306,52.339024,,0,asdz,
asdz|1-2,,Amsterdam Zuid Perron 1-2,4.87306,52.339024,,0,asdz,1-2
asdz|3,,Amsterdam Zuid Perron 3,4.87306,52.339024,,0,asdz,3
asdz|4,,Amsterdam Zuid Perron 4,4.87306,52.339024,,0,asdz,4
ashd,ashd,Amsterdam Holendrecht,4.96065,52.293535,Europe/Amsterdam,1,,
ashd|0,,Amsterdam Holendrecht,4.96065,52.293535,,0,ashd,
ashd|2,,Amsterdam Holendrecht Perron 2,4.96065,52.293535,,0,ashd,2
ashd|5,,Amsterdam Holendrecht Perron 5,4.96065,52.293535,,0,ashd,5
ashfd,ashfd,Ashford International,0.87636,51.143740,Europe/London,1,,
ashfd|0,,Ashford International,0.87636,51.143740,,0,ashfd,
asn,asn,Assen,6.57076,52.992035,Europe/Amsterdam,1,,
asn|0,,Assen,6.57076,52.992035,,0,asn,
asn|2,,Assen Perron 2,6.57076,52.992035,,0,asn,2
asn|3,,Assen Perron 3,6.57076,52.992035,,0,asn,3
ass,ass,Amsterdam Sloterdijk,4.83678,52.389372,Europe/Amsterdam,1,,
ass|0,,Amsterdam Sloterdijk,4.83678,52.389372,,0,ass,
ass|10,,Amsterdam Sloterdijk Perron 10,4.83678,52.389372,,0,ass,10
ass|11,,Amsterdam Sloterdijk Perron 11,4.83678,52.389372,,0,ass,11
ass|12,,Amsterdam Sloterdijk Perron 12,4.83678,52.389372,,0,ass,12
ass|3,,Amsterdam Sloterdijk Perron 3,4.83678,52.389372,,0,ass,3
ass|4,,Amsterdam Sloterdijk Perron 4,4.83678,52.389372,,0,ass,4
ass|5,,Amsterdam Sloterdijk Perron 5,4.83678,52.389372,,0,ass,5
ass|6,,Amsterdam Sloterdijk Perron 6,4.83678,52.389372,,0,ass,6
ass|7,,Amsterdam Sloterdijk Perron 7,4.83678,52.389372,,0,ass,7
ass|8,,Amsterdam Sloterdijk Perron 8,4.83678,52.389372,,0,ass,8
ass|9,,Amsterdam Sloterdijk Perron 9,4.83678,52.389372,,0,ass,9
assp,assp,Amsterdam Science Park,4.94998,52.349939,Europe/Amsterdam,1,,
assp|0,,Amsterdam Science Park,4.94998,52.349939,,0,assp,
assp|1,,Amsterdam Science Park Perron 1,4.94998,52.349939,,0,assp,1
assp|2,,Amsterdam Science Park Perron 2,4.94998,52.349939,,0,assp,2
atn,atn,Aalten,6.57865,51.921283,Europe/Amsterdam,1,,
atn|0,,Aalten,6.57865,51.921283,,0,atn,
atn|1,,Aalten Perron 1,6.57865,51.921283,,0,atn,1
atn|2,,Aalten Perron 2,6.57865,51.921283,,0,atn,2
atw,atw,Antwerpen-Centraal,4.47003,51.216758,Europe/Amsterdam,1,,
atw|0,,Antwerpen-Centraal,4.47003,51.216758,,0,atw,
avat,avat,Amersfoort Vathorst,5.43342,52.192193,Europe/Amsterdam,1,,
avat|0,,Amersfoort Vathorst,5.43342,52.192193,,0,avat,
avat|1,,Amersfoort Vathorst Perron 1,5.43342,52.192193,,0,avat,1
avat|2,,Amersfoort Vathorst Perron 2,5.43342,52.192193,,0,avat,2
avat|3,,Amersfoort Vathorst Perron 3,5.43342,52.192193,,0,avat,3
avtgv,avtgv,Avignon TGV,4.92322,43.981403,Europe/Amsterdam,1,,
avtgv|0,,Avignon TGV,4.92322,43.981403,,0,avtgv,
aw,aw,Aachen West,6.07072,50.780327,Europe/Amsterdam,1,,
aw|0,,Aachen West,6.07072,50.780327,,0,aw,
badenz,badenz,Baden,8.30773,47.477327,Europe/Amsterdam,1,,
badenz|0,,Baden,8.30773,47.477327,,0,badenz,
baselb,baselb,Basel Bad Bf,7.60778,47.567364,Europe/Amsterdam,1,,
baselb|0,,Basel Bad Bf,7.60778,47.567364,,0,baselb,
basels,basels,Basel SBB,7.58899,47.547348,Europe/Amsterdam,1,,
basels|0,,Basel SBB,7.58899,47.547348,,0,basels,
bd,bd,Breda,4.78005,51.595065,Europe/Amsterdam,1,,
bd|0,,Breda,4.78005,51.595065,,0,bd,
bd|3,,Breda Perron 3,4.78005,51.595065,,0,bd,3
bd|4,,Breda Perron 4,4.78005,51.595065,,0,bd,4
bd|5,,Breda Perron 5,4.78005,51.595065,,0,bd,5
bd|6,,Breda Perron 6,4.78005,51.595065,,0,bd,6
bd|7,,Breda Perron 7,4.78005,51.595065,,0,bd,7
bd|8,,Breda Perron 8,4.78005,51.595065,,0,bd,8
bde,bde,Bunde,5.73643,50.896879,Europe/Amsterdam,1,,
bde|0,,Bunde,5.73643,50.896879,,0,bde,
bde|1,,Bunde Perron 1,5.73643,50.896879,,0,bde,1
bde|2,,Bunde Perron 2,5.73643,50.896879,,0,bde,2
bdg,bdg,Bodegraven,4.74603,52.081705,Europe/Amsterdam,1,,
bdg|0,,Bodegraven,4.74603,52.081705,,0,bdg,
bdg|1,,Bodegraven Perron 1,4.74603,52.081705,,0,bdg,1
bdg|2,,Bodegraven Perron 2,4.74603,52.081705,,0,bdg,2
bdm,bdm,Bedum,6.59305,53.306884,Europe/Amsterdam,1,,
bdm|0,,Bedum,6.59305,53.306884,,0,bdm,
bdm|1,,Bedum Perron 1,6.59305,53.306884,,0,bdm,1
bdm|2,,Bedum Perron 2,6.59305,53.306884,,0,bdm,2
bdpb,bdpb,Breda-Prinsenbeek,4.72232,51.605268,Europe/Amsterdam,1,,
bdpb|0,,Breda-Prinsenbeek,4.72232,51.605268,,0,bdpb,
bdpb|1,,Breda-Prinsenbeek Perron 1,4.72232,51.605268,,0,bdpb,1
bdpb|2,,Breda-Prinsenbeek Perron 2,4.72232,51.605268,,0,bdpb,2
berfl,berfl,Berlin-Schönefeld Flugh.,13.51198,52.390885,Europe/Amsterdam,1,,
berfl|0,,Berlin-Schönefeld Flugh.,13.51198,52.390885,,0,berfl,
berhbl,berhbl,Berlin Hbf-Lehrter Bahnh.,13.36951,52.525631,Europe/Amsterdam,1,,
berhbl|0,,Berlin Hbf-Lehrter Bahnh.,13.36951,52.525631,,0,berhbl,
bet,bet,Best,5.38922,51.509541,Europe/Amsterdam,1,,
bet|0,,Best,5.38922,51.509541,,0,bet,
bet|1,,Best Perron 1,5.38922,51.509541,,0,bet,1
bet|2,,Best Perron 2,5.38922,51.509541,,0,bet,2
bet|3,,Best Perron 3,5.38922,51.509541,,0,bet,3
bet|4,,Best Perron 4,5.38922,51.509541,,0,bet,4
bf,bf,Baflo,6.51856,53.360895,Europe/Amsterdam,1,,
bf|0,,Baflo,6.51856,53.360895,,0,bf,
bf|1,,Baflo Perron 1,6.51856,53.360895,,0,bf,1
bf|2,,Baflo Perron 2,6.51856,53.360895,,0,bf,2
bgn,bgn,Bergen op Zoom,4.29593,51.495274,Europe/Amsterdam,1,,
bgn|0,,Bergen op Zoom,4.29593,51.495274,,0,bgn,
bgn|2,,Bergen op Zoom Perron 2,4.29593,51.495274,,0,bgn,2
bgn|3,,Bergen op Zoom Perron 3,4.29593,51.495274,,0,bgn,3
bh,bh,Bad Bentheim,7.15956,52.310049,Europe/Amsterdam,1,,
bh|0,,Bad Bentheim,7.15956,52.310049,,0,bh,
bhdv,bhdv,Boven-Hardinxveld,4.87188,51.832356,Europe/Amsterdam,1,,
bhdv|0,,Boven-Hardinxveld,4.87188,51.832356,,0,bhdv,
bhdv|1,,Boven-Hardinxveld Perron 1,4.87188,51.832356,,0,bhdv,1
bhdv|2,,Boven-Hardinxveld Perron 2,4.87188,51.832356,,0,bhdv,2
bhf,bhf,Berlin Ostbahnhof,13.43461,52.511013,Europe/Amsterdam,1,,
bhf|0,,Berlin Ostbahnhof,13.43461,52.511013,,0,bhf,
bhv,bhv,Bilthoven,5.20421,52.129685,Europe/Amsterdam,1,,
bhv|0,,Bilthoven,5.20421,52.129685,,0,bhv,
bhv|1,,Bilthoven Perron 1,5.20421,52.129685,,0,bhv,1
bhv|2,,Bilthoven Perron 2,5.20421,52.129685,,0,bhv,2
bk,bk,Beek-Elsloo,5.78590,50.946967,Europe/Amsterdam,1,,
bk|0,,Beek-Elsloo,5.78590,50.946967,,0,bk,
bk|2,,Beek-Elsloo Perron 2,5.78590,50.946967,,0,bk,2
bk|3,,Beek-Elsloo Perron 3,5.78590,50.946967,,0,bk,3
bkf,bkf,Bovenkarspel Flora,5.25304,52.696231,Europe/Amsterdam,1,,
bkf|0,,Bovenkarspel Flora,5.25304,52.696231,,0,bkf,
bkf|1,,Bovenkarspel Flora Perron 1,5.25304,52.696231,,0,bkf,1
bkg,bkg,Bovenkarspel-Grootebroek,5.23603,52.695222,Europe/Amsterdam,1,,
bkg|0,,Bovenkarspel-Grootebroek,5.23603,52.695222,,0,bkg,
bkg|1,,Bovenkarspel-Grootebroek Perron 1,5.23603,52.695222,,0,bkg,1
bkg|2,,Bovenkarspel-Grootebroek Perron 2,5.23603,52.695222,,0,bkg,2
bkl,bkl,Breukelen,4.99062,52.171134,Europe/Amsterdam,1,,
bkl|0,,Breukelen,4.99062,52.171134,,0,bkl,
bkl|2,,Breukelen Perron 2,4.99062,52.171134,,0,bkl,2
bkl|3,,Breukelen Perron 3,4.99062,52.171134,,0,bkl,3
bl,bl,Beilen,6.52103,52.855014,Europe/Amsterdam,1,,
bl|0,,Beilen,6.52103,52.855014,,0,bl,
bl|1,,Beilen Perron 1,6.52103,52.855014,,0,bl,1
bl|2,,Beilen Perron 2,6.52103,52.855014,,0,bl,2
bll,bll,Bloemendaal,4.62704,52.404030,Europe/Amsterdam,1,,
bll|0,,Bloemendaal,4.62704,52.404030,,0,bll,
bll|1,,Bloemendaal Perron 1,4.62704,52.404030,,0,bll,1
bll|2,,Bloemendaal Perron 2,4.62704,52.404030,,0,bll,2
bmn,bmn,Brummen,6.14774,52.091689,Europe/Amsterdam,1,,
bmn|0,,Brummen,6.14774,52.091689,,0,bmn,
bmn|1,,Brummen Perron 1,6.14774,52.091689,,0,bmn,1
bmn|2,,Brummen Perron 2,6.14774,52.091689,,0,bmn,2
bmr,bmr,Boxmeer,5.93953,51.644324,Europe/Amsterdam,1,,
bmr|0,,Boxmeer,5.93953,51.644324,,0,bmr,
bmr|1,,Boxmeer Perron 1,5.93953,51.644324,,0,bmr,1
bmr|2,,Boxmeer Perron 2,5.93953,51.644324,,0,bmr,2
bn,bn,Borne,6.74870,52.298326,Europe/Amsterdam,1,,
bn|0,,Borne,6.74870,52.298326,,0,bn,
bn|1,,Borne Perron 1,6.74870,52.298326,,0,bn,1
bn|2,,Borne Perron 2,6.74870,52.298326,,0,bn,2
bnc,bnc,Barneveld Centrum,5.58952,52.140528,Europe/Amsterdam,1,,
bnc|0,,Barneveld Centrum,5.58952,52.140528,,0,bnc,
bnc|1,,Barneveld Centrum Perron 1,5.58952,52.140528,,0,bnc,1
bnc|2,,Barneveld Centrum Perron 2,5.58952,52.140528,,0,bnc,2
bnk,bnk,Bunnik,5.19573,52.063339,Europe/Amsterdam,1,,
bnk|0,,Bunnik,5.19573,52.063339,,0,bnk,
bnk|1,,Bunnik Perron 1,5.19573,52.063339,,0,bnk,1
bnk|2,,Bunnik Perron 2,5.19573,52.063339,,0,bnk,2
bnn,bnn,Barneveld Noord,5.59882,52.160824,Europe/Amsterdam,1,,
bnn|0,,Barneveld Noord,5.59882,52.160824,,0,bnn,
bnn|1,,Barneveld Noord Perron 1,5.59882,52.160824,,0,bnn,1
bonn,bonn,Bonn Hbf,7.09708,50.732021,Europe/Amsterdam,1,,
bonn|0,,Bonn Hbf,7.09708,50.732021,,0,bonn,
bourg,bourg,Bourg-St-Maurice,6.77187,45.616355,Europe/Amsterdam,1,,
bourg|0,,Bourg-St-Maurice,6.77187,45.616355,,0,bourg,
bp,bp,Buitenpost,6.14465,53.256453,Europe/Amsterdam,1,,
bp|0,,Buitenpost,6.14465,53.256453,,0,bp,
bp|1,,Buitenpost Perron 1,6.14465,53.256453,,0,bp,1
bp|2,,Buitenpost Perron 2,6.14465,53.256453,,0,bp,2
br,br,Blerick,6.15525,51.372179,Europe/Amsterdam,1,,
br|0,,Blerick,6.15525,51.372179,,0,br,
br|1,,Blerick Perron 1,6.15525,51.372179,,0,br,1
br|2,,Blerick Perron 2,6.15525,51.372179,,0,br,2
br|3,,Blerick Perron 3,6.15525,51.372179,,0,br,3
br|4,,Blerick Perron 4,6.15525,51.372179,,0,br,4
brd,brd,Barendrecht,4.55243,51.854699,Europe/Amsterdam,1,,
brd|0,,Barendrecht,4.55243,51.854699,,0,brd,
brd|1,,Barendrecht Perron 1,4.55243,51.854699,,0,brd,1
brd|2,,Barendrecht Perron 2,4.55243,51.854699,,0,brd,2
brd|3,,Barendrecht Perron 3,4.55243,51.854699,,0,brd,3
brd|4,,Barendrecht Perron 4,4.55243,51.854699,,0,brd,4
bressx,bressx,Bressoux,5.60350,50.648036,Europe/Amsterdam,1,,
bressx|0,,Bressoux,5.60350,50.648036,,0,bressx,
brn,brn,Baarn,5.28216,52.208064,Europe/Amsterdam,1,,
brn|0,,Baarn,5.28216,52.208064,,0,brn,
brn|2,,Baarn Perron 2,5.28216,52.208064,,0,brn,2
brn|3,,Baarn Perron 3,5.28216,52.208064,,0,brn,3
brn|4,,Baarn Perron 4,5.28216,52.208064,,0,brn,4
brusc,brusc,Brussel-Centraal,4.34866,50.843126,Europe/Amsterdam,1,,
brusc|0,,Brussel-Centraal,4.34866,50.843126,,0,brusc,
brusn,brusn,Brussel-Noord,4.35775,50.855613,Europe/Amsterdam,1,,
brusn|0,,Brussel-Noord,4.35775,50.855613,,0,brusn,
brusz,brusz,Brussel-Zuid/Midi,4.34545,50.834108,Europe/Amsterdam,1,,
brusz|0,,Brussel-Zuid/Midi,4.34545,50.834108,,0,brusz,
bsd,bsd,Beesd,5.19483,51.899393,Europe/Amsterdam,1,,
bsd|0,,Beesd,5.19483,51.899393,,0,bsd,
bsd|1,,Beesd Perron 1,5.19483,51.899393,,0,bsd,1
bsd|2,,Beesd Perron 2,5.19483,51.899393,,0,bsd,2
bsk,bsk,Boskoop,4.64662,52.076448,Europe/Amsterdam,1,,
bsk|0,,Boskoop,4.64662,52.076448,,0,bsk,
bsk|1,,Boskoop Perron 1,4.64662,52.076448,,0,bsk,1
bsk|2,,Boskoop Perron 2,4.64662,52.076448,,0,bsk,2
bsmz,bsmz,Bussum Zuid,5.16308,52.265331,Europe/Amsterdam,1,,
bsmz|0,,Bussum Zuid,5.16308,52.265331,,0,bsmz,
bsmz|1,,Bussum Zuid Perron 1,5.16308,52.265331,,0,bsmz,1
bsmz|2,,Bussum Zuid Perron 2,5.16308,52.265331,,0,bsmz,2
bspd,bspd,Berlin-Spandau,13.19752,52.534511,Europe/Amsterdam,1,,
bspd|0,,Berlin-Spandau,13.19752,52.534511,,0,bspd,
btl,btl,Boxtel,5.31910,51.584846,Europe/Amsterdam,1,,
btl|0,,Boxtel,5.31910,51.584846,,0,btl,
btl|2,,Boxtel Perron 2,5.31910,51.584846,,0,btl,2
btl|3,,Boxtel Perron 3,5.31910,51.584846,,0,btl,3
btl|6,,Boxtel Perron 6,5.31910,51.584846,,0,btl,6
btl|7,,Boxtel Perron 7,5.31910,51.584846,,0,btl,7
buende,buende,Buende (Westf.),8.64416,52.224218,Europe/Amsterdam,1,,
buende|0,,Buende (Westf.),8.64416,52.224218,,0,buende,
bv,bv,Beverwijk,4.65521,52.478267,Europe/Amsterdam,1,,
bv|0,,Beverwijk,4.65521,52.478267,,0,bv,
bv|2,,Beverwijk Perron 2,4.65521,52.478267,,0,bv,2
bv|3,,Beverwijk Perron 3,4.65521,52.478267,,0,bv,3
bv|4,,Beverwijk Perron 4,4.65521,52.478267,,0,bv,4
bv|5,,Beverwijk Perron 5,4.65521,52.478267,,0,bv,5
bzl,bzl,Kapelle-Biezelinge,3.95680,51.480554,Europe/Amsterdam,1,,
bzl|0,,Kapelle-Biezelinge,3.95680,51.480554,,0,bzl,
bzl|1,,Kapelle-Biezelinge Perron 1,3.95680,51.480554,,0,bzl,1
bzl|2,,Kapelle-Biezelinge Perron 2,3.95680,51.480554,,0,bzl,2
cas,cas,Castricum,4.65925,52.545609,Europe/Amsterdam,1,,
cas|0,,Castricum,4.65925,52.545609,,0,cas,
cas|1,,Castricum Perron 1,4.65925,52.545609,,0,cas,1
cas|2,,Castricum Perron 2,4.65925,52.545609,,0,cas,2
chamb,chamb,Chambery,5.91867,45.571982,Europe/Amsterdam,1,,
chamb|0,,Chambery,5.91867,45.571982,,0,chamb,
ck,ck,Cuijk,5.87396,51.727220,Europe/Amsterdam,1,,
ck|0,,Cuijk,5.87396,51.727220,,0,ck,
ck|1,,Cuijk Perron 1,5.87396,51.727220,,0,ck,1
ck|2,,Cuijk Perron 2,5.87396,51.727220,,0,ck,2
ck|3,,Cuijk Perron 3,5.87396,51.727220,,0,ck,3
cl,cl,Culemborg,5.22721,51.946720,Europe/Amsterdam,1,,
cl|0,,Culemborg,5.22721,51.946720,,0,cl,
cl|1,,Culemborg Perron 1,5.22721,51.946720,,0,cl,1
cl|2,,Culemborg Perron 2,5.22721,51.946720,,0,cl,2
co,co,Coevorden,6.73604,52.663133,Europe/Amsterdam,1,,
co|0,,Coevorden,6.73604,52.663133,,0,co,
co|1,,Coevorden Perron 1,6.73604,52.663133,,0,co,1
co|2,,Coevorden Perron 2,6.73604,52.663133,,0,co,2
cps,cps,Capelle Schollevaar,4.58405,51.954154,Europe/Amsterdam,1,,
cps|0,,Capelle Schollevaar,4.58405,51.954154,,0,cps,
cps|1,,Capelle Schollevaar Perron 1,4.58405,51.954154,,0,cps,1
cps|2,,Capelle Schollevaar Perron 2,4.58405,51.954154,,0,cps,2
cvm,cvm,Chevremont,6.05978,50.876305,Europe/Amsterdam,1,,
cvm|0,,Chevremont,6.05978,50.876305,,0,cvm,
cvm|1,,Chevremont Perron 1,6.05978,50.876305,,0,cvm,1
da,da,Daarlerveen,6.57599,52.440768,Europe/Amsterdam,1,,
da|0,,Daarlerveen,6.57599,52.440768,,0,da,
da|1a,,Daarlerveen Perron 1a,6.57599,52.440768,,0,da,1a
da|1b,,Daarlerveen Perron 1b,6.57599,52.440768,,0,da,1b
db,db,Driebergen-Zeist,5.25989,52.065134,Europe/Amsterdam,1,,
db|0,,Driebergen-Zeist,5.25989,52.065134,,0,db,
db|1,,Driebergen-Zeist Perron 1,5.25989,52.065134,,0,db,1
db|2,,Driebergen-Zeist Perron 2,5.25989,52.065134,,0,db,2
ddn,ddn,Delden,6.71486,52.260149,Europe/Amsterdam,1,,
ddn|0,,Delden,6.71486,52.260149,,0,ddn,
ddn|1,,Delden Perron 1,6.71486,52.260149,,0,ddn,1
ddn|2,,Delden Perron 2,6.71486,52.260149,,0,ddn,2
ddr,ddr,Dordrecht,4.66844,51.807556,Europe/Amsterdam,1,,
ddr|0,,Dordrecht,4.66844,51.807556,,0,ddr,
ddr|1,,Dordrecht Perron 1,4.66844,51.807556,,0,ddr,1
ddr|15,,Dordrecht Perron 15,4.66844,51.807556,,0,ddr,15
ddr|1b,,Dordrecht Perron 1b,4.66844,51.807556,,0,ddr,1b
ddr|2,,Dordrecht Perron 2,4.66844,51.807556,,0,ddr,2
ddr|20,,Dordrecht Perron 20,4.66844,51.807556,,0,ddr,20
ddr|2a,,Dordrecht Perron 2a,4.66844,51.807556,,0,ddr,2a
ddr|2b,,Dordrecht Perron 2b,4.66844,51.807556,,0,ddr,2b
ddr|3,,Dordrecht Perron 3,4.66844,51.807556,,0,ddr,3
ddr|3a,,Dordrecht Perron 3a,4.66844,51.807556,,0,ddr,3a
ddr|3b,,Dordrecht Perron 3b,4.66844,51.807556,,0,ddr,3b
ddr|4,,Dordrecht Perron 4,4.66844,51.807556,,0,ddr,4
ddr|4a,,Dordrecht Perron 4a,4.66844,51.807556,,0,ddr,4a
ddr|4b,,Dordrecht Perron 4b,4.66844,51.807556,,0,ddr,4b
ddr|5,,Dordrecht Perron 5,4.66844,51.807556,,0,ddr,5
ddr|5b,,Dordrecht Perron 5b,4.66844,51.807556,,0,ddr,5b
ddrs,ddrs,Dordrecht Stadspolders,4.71666,51.802089,Europe/Amsterdam,1,,
ddrs|0,,Dordrecht Stadspolders,4.71666,51.802089,,0,ddrs,
ddrs|1,,Dordrecht Stadspolders Perron 1,4.71666,51.802089,,0,ddrs,1
ddrs|2,,Dordrecht Stadspolders Perron 2,4.71666,51.802089,,0,ddrs,2
ddzd,ddzd,Dordrecht Zuid,4.67191,51.790050,Europe/Amsterdam,1,,
ddzd|0,,Dordrecht Zuid,4.67191,51.790050,,0,ddzd,
ddzd|1,,Dordrecht Zuid Perron 1,4.67191,51.790050,,0,ddzd,1
ddzd|2,,Dordrecht Zuid Perron 2,4.67191,51.790050,,0,ddzd,2
dei,dei,Deinum,5.72815,53.188809,Europe/Amsterdam,1,,
dei|0,,Deinum,5.72815,53.188809,,0,dei,
dei|1,,Deinum Perron 1,5.72815,53.188809,,0,dei,1
did,did,Didam,6.13241,51.933500,Europe/Amsterdam,1,,
did|0,,Didam,6.13241,51.933500,,0,did,
did|1,,Didam Perron 1,6.13241,51.933500,,0,did,1
did|2,,Didam Perron 2,6.13241,51.933500,,0,did,2
dl,dl,Dalfsen,6.25959,52.498436,Europe/Amsterdam,1,,
dl|0,,Dalfsen,6.25959,52.498436,,0,dl,
dl|1,,Dalfsen Perron 1,6.25959,52.498436,,0,dl,1
dl|2,,Dalfsen Perron 2,6.25959,52.498436,,0,dl,2
dld,dld,Den Dolder,5.24171,52.140073,Europe/Amsterdam,1,,
dld|0,,Den Dolder,5.24171,52.140073,,0,dld,
dld|1,,Den Dolder Perron 1,5.24171,52.140073,,0,dld,1
dld|2,,Den Dolder Perron 2,5.24171,52.140073,,0,dld,2
dln,dln,Dalen,6.75801,52.694609,Europe/Amsterdam,1,,
dln|0,,Dalen,6.75801,52.694609,,0,dln,
dln|1,,Dalen Perron 1,6.75801,52.694609,,0,dln,1
dmn,dmn,Diemen,4.96734,52.345598,Europe/Amsterdam,1,,
dmn|0,,Diemen,4.96734,52.345598,,0,dmn,
dmn|1,,Diemen Perron 1,4.96734,52.345598,,0,dmn,1
dmn|2,,Diemen Perron 2,4.96734,52.345598,,0,dmn,2
dmnz,dmnz,Diemen Zuid,4.95619,52.330458,Europe/Amsterdam,1,,
dmnz|0,,Diemen Zuid,4.95619,52.330458,,0,dmnz,
dmnz|1,,Diemen Zuid Perron 1,4.95619,52.330458,,0,dmnz,1
dmnz|2,,Diemen Zuid Perron 2,4.95619,52.330458,,0,dmnz,2
dn,dn,Deurne,5.78805,51.456358,Europe/Amsterdam,1,,
dn|0,,Deurne,5.78805,51.456358,,0,dn,
dn|1,,Deurne Perron 1,5.78805,51.456358,,0,dn,1
dn|2,,Deurne Perron 2,5.78805,51.456358,,0,dn,2
dn|3,,Deurne Perron 3,5.78805,51.456358,,0,dn,3
dr,dr,Dieren,6.10335,52.044688,Europe/Amsterdam,1,,
dr|0,,Dieren,6.10335,52.044688,,0,dr,
dr|1,,Dieren Perron 1,6.10335,52.044688,,0,dr,1
dr|2,,Dieren Perron 2,6.10335,52.044688,,0,dr,2
drh,drh,Driehuis,4.63931,52.443295,Europe/Amsterdam,1,,
drh|0,,Driehuis,4.63931,52.443295,,0,drh,
drh|1,,Driehuis Perron 1,4.63931,52.443295,,0,drh,1
drh|2,,Driehuis Perron 2,4.63931,52.443295,,0,drh,2
drp,drp,Dronrijp,5.63474,53.177807,Europe/Amsterdam,1,,
drp|0,,Dronrijp,5.63474,53.177807,,0,drp,
drp|1,,Dronrijp Perron 1,5.63474,53.177807,,0,drp,1
drp|2,,Dronrijp Perron 2,5.63474,53.177807,,0,drp,2
dt,dt,Delft,4.35662,52.006673,Europe/Amsterdam,1,,
dt|0,,Delft,4.35662,52.006673,,0,dt,
dt|1,,Delft Perron 1,4.35662,52.006673,,0,dt,1
dt|2,,Delft Perron 2,4.35662,52.006673,,0,dt,2
dt|3,,Delft Perron 3,4.35662,52.006673,,0,dt,3
dtc,dtc,Doetinchem,6.29621,51.958594,Europe/Amsterdam,1,,
dtc|0,,Doetinchem,6.29621,51.958594,,0,dtc,
dtc|3,,Doetinchem Perron 3,6.29621,51.958594,,0,dtc,3
dtc|4,,Doetinchem Perron 4,6.29621,51.958594,,0,dtc,4
dtch,dtch,Doetinchem De Huet,6.25985,51.959139,Europe/Amsterdam,1,,
dtch|0,,Doetinchem De Huet,6.25985,51.959139,,0,dtch,
dtch|1,,Doetinchem De Huet Perron 1,6.25985,51.959139,,0,dtch,1
dtz,dtz,Delft Zuid,4.36470,51.990923,Europe/Amsterdam,1,,
dtz|0,,Delft Zuid,4.36470,51.990923,,0,dtz,
dtz|1,,Delft Zuid Perron 1,4.36470,51.990923,,0,dtz,1
dtz|2,,Delft Zuid Perron 2,4.36470,51.990923,,0,dtz,2
duisb,duisb,Duisburg Hbf,6.77474,51.430006,Europe/Amsterdam,1,,
duisb|0,,Duisburg Hbf,6.77474,51.430006,,0,duisb,
dussel,dussel,Duesseldorf Hbf,6.79429,51.219948,Europe/Amsterdam,1,,
dussel|0,,Duesseldorf Hbf,6.79429,51.219948,,0,dussel,
dv,dv,Deventer,6.16096,52.257076,Europe/Amsterdam,1,,
dv|0,,Deventer,6.16096,52.257076,,0,dv,
dv|2,,Deventer Perron 2,6.16096,52.257076,,0,dv,2
dv|2a,,Deventer Perron 2a,6.16096,52.257076,,0,dv,2a
dv|2b,,Deventer Perron 2b,6.16096,52.257076,,0,dv,2b
dv|3,,Deventer Perron 3,6.16096,52.257076,,0,dv,3
dv|4,,Deventer Perron 4,6.16096,52.257076,,0,dv,4
dvc,dvc,Deventer Colmschate,6.21547,52.250505,Europe/Amsterdam,1,,
dvc|0,,Deventer Colmschate,6.21547,52.250505,,0,dvc,
dvc|1,,Deventer Colmschate Perron 1,6.21547,52.250505,,0,dvc,1
dvc|2,,Deventer Colmschate Perron 2,6.21547,52.250505,,0,dvc,2
dvd,dvd,Duivendrecht,4.93660,52.323555,Europe/Amsterdam,1,,
dvd|0,,Duivendrecht,4.93660,52.323555,,0,dvd,
dvd|1,,Duivendrecht Perron 1,4.93660,52.323555,,0,dvd,1
dvd|4,,Duivendrecht Perron 4,4.93660,52.323555,,0,dvd,4
dvd|5,,Duivendrecht Perron 5,4.93660,52.323555,,0,dvd,5
dvd|8,,Duivendrecht Perron 8,4.93660,52.323555,,0,dvd,8
dvn,dvn,Duiven,6.01462,51.943356,Europe/Amsterdam,1,,
dvn|0,,Duiven,6.01462,51.943356,,0,dvn,
dvn|1,,Duiven Perron 1,6.01462,51.943356,,0,dvn,1
dvn|2,,Duiven Perron 2,6.01462,51.943356,,0,dvn,2
dvnk,dvnk,De Vink,4.45610,52.146645,Europe/Amsterdam,1,,
dvnk|0,,De Vink,4.45610,52.146645,,0,dvnk,
dvnk|1,,De Vink Perron 1,4.45610,52.146645,,0,dvnk,1
dvnk|2,,De Vink Perron 2,4.45610,52.146645,,0,dvnk,2
dvnk|3,,De Vink Perron 3,4.45610,52.146645,,0,dvnk,3
dvnk|4,,De Vink Perron 4,4.45610,52.146645,,0,dvnk,4
dz,dz,Delfzijl,6.92408,53.333660,Europe/Amsterdam,1,,
dz|0,,Delfzijl,6.92408,53.333660,,0,dz,
dz|1,,Delfzijl Perron 1,6.92408,53.333660,,0,dz,1
dzw,dzw,Delfzijl West,6.90691,53.332081,Europe/Amsterdam,1,,
dzw|0,,Delfzijl West,6.90691,53.332081,,0,dzw,
dzw|1,,Delfzijl West Perron 1,6.90691,53.332081,,0,dzw,1
eabg,eabg,Altenberge,7.48124,52.052245,Europe/Amsterdam,1,,
eabg|0,,Altenberge,7.48124,52.052245,,0,eabg,
eahs,eahs,Ahaus,7.01669,52.081615,Europe/Amsterdam,1,,
eahs|0,,Ahaus,7.01669,52.081615,,0,eahs,
ebbs,ebbs,Ebbsfleet International,0.31635,51.444011,Europe/London,1,,
ebbs|0,,Ebbsfleet International,0.31635,51.444011,,0,ebbs,
ebeo,ebeo,Boenen,7.75735,51.598055,Europe/Amsterdam,1,,
ebeo|0,,Boenen,7.75735,51.598055,,0,ebeo,
ebft,ebft,Burgsteinfurt,7.32919,52.147541,Europe/Amsterdam,1,,
ebft|0,,Burgsteinfurt,7.32919,52.147541,,0,ebft,
ebgo,ebgo,Borghorst (Westf),7.39616,52.119178,Europe/Amsterdam,1,,
ebgo|0,,Borghorst (Westf),7.39616,52.119178,,0,ebgo,
ebok,ebok,Bork (Westf),7.45658,51.669851,Europe/Amsterdam,1,,
ebok|0,,Bork (Westf),7.45658,51.669851,,0,ebok,
ec,ec,Echt,5.87888,51.100500,Europe/Amsterdam,1,,
ec|0,,Echt,5.87888,51.100500,,0,ec,
ec|1,,Echt Perron 1,5.87888,51.100500,,0,ec,1
ec|2,,Echt Perron 2,5.87888,51.100500,,0,ec,2
ecmf,ecmf,Coesfeld (Westf),7.16424,51.939058,Europe/Amsterdam,1,,
ecmf|0,,Coesfeld (Westf),7.16424,51.939058,,0,ecmf,
ed,ed,Ede-Wageningen,5.67163,52.028187,Europe/Amsterdam,1,,
ed|0,,Ede-Wageningen,5.67163,52.028187,,0,ed,
ed|1a,,Ede-Wageningen Perron 1a,5.67163,52.028187,,0,ed,1a
ed|1b,,Ede-Wageningen Perron 1b,5.67163,52.028187,,0,ed,1b
ed|3,,Ede-Wageningen Perron 3,5.67163,52.028187,,0,ed,3
ed|4,,Ede-Wageningen Perron 4,5.67163,52.028187,,0,ed,4
edc,edc,Ede Centrum,5.66838,52.043385,Europe/Amsterdam,1,,
edc|0,,Ede Centrum,5.66838,52.043385,,0,edc,
edc|1,,Ede Centrum Perron 1,5.66838,52.043385,,0,edc,1
edd,edd,Dortmund-Derne,7.52836,51.567228,Europe/Amsterdam,1,,
edd|0,,Dortmund-Derne,7.52836,51.567228,,0,edd,
edkd,edkd,Dortmund-Kirchderne,7.51024,51.546969,Europe/Amsterdam,1,,
edkd|0,,Dortmund-Kirchderne,7.51024,51.546969,,0,edkd,
edn,edn,Eijsden,5.70997,50.772012,Europe/Amsterdam,1,,
edn|0,,Eijsden,5.70997,50.772012,,0,edn,
edn|1,,Eijsden Perron 1,5.70997,50.772012,,0,edn,1
edn|2,,Eijsden Perron 2,5.70997,50.772012,,0,edn,2
edo,edo,Dortmund Hbf,7.45931,51.517853,Europe/Amsterdam,1,,
edo|0,,Dortmund Hbf,7.45931,51.517853,,0,edo,
edulh,edulh,Duelmen,7.29581,51.827941,Europe/Amsterdam,1,,
edulh|0,,Duelmen,7.29581,51.827941,,0,edulh,
eenp,eenp,Ennepetal (Gevelsberg),7.34320,51.304434,Europe/Amsterdam,1,,
eenp|0,,Ennepetal (Gevelsberg),7.34320,51.304434,,0,eenp,
eepe,eepe,Epe (Westf),7.03006,52.183371,Europe/Amsterdam,1,,
eepe|0,,Epe (Westf),7.03006,52.183371,,0,eepe,
egh,egh,Eygelshoven,6.04576,50.890049,Europe/Amsterdam,1,,
egh|0,,Eygelshoven,6.04576,50.890049,,0,egh,
egh|1,,Eygelshoven Perron 1,6.04576,50.890049,,0,egh,1
eghm,eghm,Eygelshoven Markt,6.05808,50.896180,Europe/Amsterdam,1,,
eghm|0,,Eygelshoven Markt,6.05808,50.896180,,0,eghm,
eghm|1,,Eygelshoven Markt Perron 1,6.05808,50.896180,,0,eghm,1
ehb,ehb,Eindhoven Beukenlaan,5.45755,51.450284,Europe/Amsterdam,1,,
ehb|0,,Eindhoven Beukenlaan,5.45755,51.450284,,0,ehb,
ehb|1,,Eindhoven Beukenlaan Perron 1,5.45755,51.450284,,0,ehb,1
ehb|2,,Eindhoven Beukenlaan Perron 2,5.45755,51.450284,,0,ehb,2
ehb|3,,Eindhoven Beukenlaan Perron 3,5.45755,51.450284,,0,ehb,3
ehb|4,,Eindhoven Beukenlaan Perron 4,5.45755,51.450284,,0,ehb,4
ehv,ehv,Eindhoven,5.47997,51.442358,Europe/Amsterdam,1,,
ehv|0,,Eindhoven,5.47997,51.442358,,0,ehv,
ehv|1,,Eindhoven Perron 1,5.47997,51.442358,,0,ehv,1
ehv|2,,Eindhoven Perron 2,5.47997,51.442358,,0,ehv,2
ehv|3,,Eindhoven Perron 3,5.47997,51.442358,,0,ehv,3
ehv|3a,,Eindhoven Perron 3a,5.47997,51.442358,,0,ehv,3a
ehv|4,,Eindhoven Perron 4,5.47997,51.442358,,0,ehv,4
ehv|4a,,Eindhoven Perron 4a,5.47997,51.442358,,0,ehv,4a
ehv|5,,Eindhoven Perron 5,5.47997,51.442358,,0,ehv,5
ehv|6,,Eindhoven Perron 6,5.47997,51.442358,,0,ehv,6
ehw,ehw,Holtwick,7.12261,51.998474,Europe/Amsterdam,1,,
ehw|0,,Holtwick,7.12261,51.998474,,0,ehw,
ehzw,ehzw,Holzwickede,7.62052,51.505080,Europe/Amsterdam,1,,
ehzw|0,,Holzwickede,7.62052,51.505080,,0,ehzw,
ekeren,ekeren,Ekeren,4.42806,51.266489,Europe/Amsterdam,1,,
ekeren|0,,Ekeren,4.42806,51.266489,,0,ekeren,
ekz,ekz,Enkhuizen,5.28765,52.699590,Europe/Amsterdam,1,,
ekz|0,,Enkhuizen,5.28765,52.699590,,0,ekz,
ekz|1,,Enkhuizen Perron 1,5.28765,52.699590,,0,ekz,1
ekz|2,,Enkhuizen Perron 2,5.28765,52.699590,,0,ekz,2
eldh,eldh,Luedinghausen,7.43167,51.761816,Europe/Amsterdam,1,,
eldh|0,,Luedinghausen,7.43167,51.761816,,0,eldh,
elet,elet,Lette (Kr Coesfeld),7.18695,51.892503,Europe/Amsterdam,1,,
elet|0,,Lette (Kr Coesfeld),7.18695,51.892503,,0,elet,
elgd,elgd,Legden,7.08846,52.035022,Europe/Amsterdam,1,,
elgd|0,,Legden,7.08846,52.035022,,0,elgd,
elue,elue,Luenen Hbf,7.52953,51.616569,Europe/Amsterdam,1,,
elue|0,,Luenen Hbf,7.52953,51.616569,,0,elue,
em,em,Emmerich,6.25409,51.834329,Europe/Amsterdam,1,,
em|0,,Emmerich,6.25409,51.834329,,0,em,
eml,eml,Ermelo,5.61430,52.300916,Europe/Amsterdam,1,,
eml|0,,Ermelo,5.61430,52.300916,,0,eml,
eml|1,,Ermelo Perron 1,5.61430,52.300916,,0,eml,1
eml|2,,Ermelo Perron 2,5.61430,52.300916,,0,eml,2
emn,emn,Emmen,6.89949,52.790596,Europe/Amsterdam,1,,
emn|0,,Emmen,6.89949,52.790596,,0,emn,
emn|1,,Emmen Perron 1,6.89949,52.790596,,0,emn,1
emn|2,,Emmen Perron 2,6.89949,52.790596,,0,emn,2
emnz,emnz,Emmen Zuid,6.87718,52.749352,Europe/Amsterdam,1,,
emnz|0,,Emmen Zuid,6.87718,52.749352,,0,emnz,
emnz|1,,Emmen Zuid Perron 1,6.87718,52.749352,,0,emnz,1
emte,emte,Metelen Land,7.25441,52.162414,Europe/Amsterdam,1,,
emte|0,,Metelen Land,7.25441,52.162414,,0,emte,
enbe,enbe,Muenster-Haeger,7.56262,52.022358,Europe/Amsterdam,1,,
enbe|0,,Muenster-Haeger,7.56262,52.022358,,0,enbe,
enhf,enhf,Muenster (W) Zentrum Nord,7.63856,51.984965,Europe/Amsterdam,1,,
enhf|0,,Muenster (W) Zentrum Nord,7.63856,51.984965,,0,enhf,
enow,enow,Nordwalde,7.46170,52.077585,Europe/Amsterdam,1,,
enow|0,,Nordwalde,7.46170,52.077585,,0,enow,
eop,eop,Ochtrup,7.18261,52.201735,Europe/Amsterdam,1,,
eop|0,,Ochtrup,7.18261,52.201735,,0,eop,
eprn,eprn,Preussen,7.53934,51.588875,Europe/Amsterdam,1,,
eprn|0,,Preussen,7.53934,51.588875,,0,eprn,
es,es,Enschede,6.89025,52.222361,Europe/Amsterdam,1,,
es|0,,Enschede,6.89025,52.222361,,0,es,
es|1,,Enschede Perron 1,6.89025,52.222361,,0,es,1
es|2,,Enschede Perron 2,6.89025,52.222361,,0,es,2
es|3,,Enschede Perron 3,6.89025,52.222361,,0,es,3
es|4,,Enschede Perron 4,6.89025,52.222361,,0,es,4
es|5,,Enschede Perron 5,6.89025,52.222361,,0,es,5
escht,escht,Eschweiler Talbahnhof,6.26306,50.814716,Europe/Amsterdam,1,,
escht|0,,Eschweiler Talbahnhof,6.26306,50.814716,,0,escht,
esd,esd,Enschede Drienerlo,6.83892,52.236936,Europe/Amsterdam,1,,
esd|0,,Enschede Drienerlo,6.83892,52.236936,,0,esd,
esd|1,,Enschede Drienerlo Perron 1,6.83892,52.236936,,0,esd,1
esd|2,,Enschede Drienerlo Perron 2,6.83892,52.236936,,0,esd,2
ese,ese,Enschede De Eschmarke,6.95111,52.221301,Europe/Amsterdam,1,,
ese|0,,Enschede De Eschmarke,6.95111,52.221301,,0,ese,
ese|1,,Enschede De Eschmarke Perron 1,6.95111,52.221301,,0,ese,1
eseb,eseb,Selm-Beifang,7.45489,51.692988,Europe/Amsterdam,1,,
eseb|0,,Selm-Beifang,7.45489,51.692988,,0,eseb,
esem,esem,Selm,7.45311,51.708034,Europe/Amsterdam,1,,
esem|0,,Selm,7.45311,51.708034,,0,esem,
esn,esn,Essen (Belgie),4.45127,51.462464,Europe/Amsterdam,1,,
esn|0,,Essen (Belgie),4.45127,51.462464,,0,esn,
esrt,esrt,Schwerte (Ruhr),7.55917,51.442219,Europe/Amsterdam,1,,
esrt|0,,Schwerte (Ruhr),7.55917,51.442219,,0,esrt,
est,est,Elst,5.85480,51.916956,Europe/Amsterdam,1,,
est|0,,Elst,5.85480,51.916956,,0,est,
est|1,,Elst Perron 1,5.85480,51.916956,,0,est,1
est|2,,Elst Perron 2,5.85480,51.916956,,0,est,2
etn,etn,Etten-Leur,4.63735,51.575450,Europe/Amsterdam,1,,
etn|0,,Etten-Leur,4.63735,51.575450,,0,etn,
etn|1,,Etten-Leur Perron 1,4.63735,51.575450,,0,etn,1
etn|2,,Etten-Leur Perron 2,4.63735,51.575450,,0,etn,2
eun,eun,Unna,7.69241,51.539020,Europe/Amsterdam,1,,
eun|0,,Unna,7.69241,51.539020,,0,eun,
eweis,eweis,Eschweiler-Weisweiler,6.32058,50.824334,Europe/Amsterdam,1,,
eweis|0,,Eschweiler-Weisweiler,6.32058,50.824334,,0,eweis,
fffm,fffm,Frankfurt (M) Hbf,8.66383,50.107120,Europe/Amsterdam,1,,
fffm|0,,Frankfurt (M) Hbf,8.66383,50.107120,,0,fffm,
fkth,fkth,Kalmthout,4.46696,51.391035,Europe/Amsterdam,1,,
fkth|0,,Kalmthout,4.46696,51.391035,,0,fkth,
flb,flb,Limburg Sud,8.09501,50.383239,Europe/Amsterdam,1,,
flb|0,,Limburg Sud,8.09501,50.383239,,0,flb,
fn,fn,Franeker,5.54831,53.182447,Europe/Amsterdam,1,,
fn|0,,Franeker,5.54831,53.182447,,0,fn,
fn|1,,Franeker Perron 1,5.54831,53.182447,,0,fn,1
fn|2,,Franeker Perron 2,5.54831,53.182447,,0,fn,2
fnaf,fnaf,Frankfurt Flughafen Fernb,8.57014,50.053196,Europe/Amsterdam,1,,
fnaf|0,,Frankfurt Flughafen Fernb,8.57014,50.053196,,0,fnaf,
fvs,fvs,Vise,5.69588,50.741848,Europe/Amsterdam,1,,
fvs|0,,Vise,5.69588,50.741848,,0,fvs,
g,g,Gronau Westf,7.02216,52.215214,Europe/Amsterdam,1,,
g|0,,Gronau Westf,7.02216,52.215214,,0,g,
gbg,gbg,Gramsbergen,6.67639,52.610315,Europe/Amsterdam,1,,
gbg|0,,Gramsbergen,6.67639,52.610315,,0,gbg,
gbg|1,,Gramsbergen Perron 1,6.67639,52.610315,,0,gbg,1
gbg|2,,Gramsbergen Perron 2,6.67639,52.610315,,0,gbg,2
gbr,gbr,Glanerbrug,6.97313,52.219029,Europe/Amsterdam,1,,
gbr|0,,Glanerbrug,6.97313,52.219029,,0,gbr,
gbr|1,,Glanerbrug Perron 1,6.97313,52.219029,,0,gbr,1
gd,gd,Gouda,4.70631,52.017215,Europe/Amsterdam,1,,
gd|0,,Gouda,4.70631,52.017215,,0,gd,
gd|10,,Gouda Perron 10,4.70631,52.017215,,0,gd,10
gd|11,,Gouda Perron 11,4.70631,52.017215,,0,gd,11
gd|3,,Gouda Perron 3,4.70631,52.017215,,0,gd,3
gd|4,,Gouda Perron 4,4.70631,52.017215,,0,gd,4
gd|5,,Gouda Perron 5,4.70631,52.017215,,0,gd,5
gd|8,,Gouda Perron 8,4.70631,52.017215,,0,gd,8
gdg,gdg,Gouda Goverwelle,4.74130,52.015075,Europe/Amsterdam,1,,
gdg|0,,Gouda Goverwelle,4.74130,52.015075,,0,gdg,
gdg|1,,Gouda Goverwelle Perron 1,4.74130,52.015075,,0,gdg,1
gdg|2,,Gouda Goverwelle Perron 2,4.74130,52.015075,,0,gdg,2
gdg|3,,Gouda Goverwelle Perron 3,4.74130,52.015075,,0,gdg,3
gdg|4,,Gouda Goverwelle Perron 4,4.74130,52.015075,,0,gdg,4
gdk,gdk,Geerdijk,6.56706,52.475282,Europe/Amsterdam,1,,
gdk|0,,Geerdijk,6.56706,52.475282,,0,gdk,
gdk|1a,,Geerdijk Perron 1a,6.56706,52.475282,,0,gdk,1a
gdk|1b,,Geerdijk Perron 1b,6.56706,52.475282,,0,gdk,1b
gdm,gdm,Geldermalsen,5.27174,51.882596,Europe/Amsterdam,1,,
gdm|0,,Geldermalsen,5.27174,51.882596,,0,gdm,
gdm|3,,Geldermalsen Perron 3,5.27174,51.882596,,0,gdm,3
gdm|3a,,Geldermalsen Perron 3a,5.27174,51.882596,,0,gdm,3a
gdm|3b,,Geldermalsen Perron 3b,5.27174,51.882596,,0,gdm,3b
gdm|4a,,Geldermalsen Perron 4a,5.27174,51.882596,,0,gdm,4a
gdm|4b,,Geldermalsen Perron 4b,5.27174,51.882596,,0,gdm,4b
gdr,gdr,Gaanderen,6.34929,51.930396,Europe/Amsterdam,1,,
gdr|0,,Gaanderen,6.34929,51.930396,,0,gdr,
gdr|1,,Gaanderen Perron 1,6.34929,51.930396,,0,gdr,1
geisl,geisl,Geislingen,9.84186,48.620258,Europe/Amsterdam,1,,
geisl|0,,Geislingen,9.84186,48.620258,,0,geisl,
gerp,gerp,Groningen Europapark,6.58231,53.206165,Europe/Amsterdam,1,,
gerp|0,,Groningen Europapark,6.58231,53.206165,,0,gerp,
gerp|1,,Groningen Europapark Perron 1,6.58231,53.206165,,0,gerp,1
gk,gk,Grijpskerk,6.30976,53.255747,Europe/Amsterdam,1,,
gk|0,,Grijpskerk,6.30976,53.255747,,0,gk,
gk|1,,Grijpskerk Perron 1,6.30976,53.255747,,0,gk,1
gk|2,,Grijpskerk Perron 2,6.30976,53.255747,,0,gk,2
gln,gln,Geleen Oost,5.84330,50.967430,Europe/Amsterdam,1,,
gln|0,,Geleen Oost,5.84330,50.967430,,0,gln,
gln|1,,Geleen Oost Perron 1,5.84330,50.967430,,0,gln,1
gln|2,,Geleen Oost Perron 2,5.84330,50.967430,,0,gln,2
gn,gn,Groningen,6.56373,53.210931,Europe/Amsterdam,1,,
gn|0,,Groningen,6.56373,53.210931,,0,gn,
gn|1a,,Groningen Perron 1a,6.56373,53.210931,,0,gn,1a
gn|1b,,Groningen Perron 1b,6.56373,53.210931,,0,gn,1b
gn|2a,,Groningen Perron 2a,6.56373,53.210931,,0,gn,2a
gn|2b,,Groningen Perron 2b,6.56373,53.210931,,0,gn,2b
gn|3a,,Groningen Perron 3a,6.56373,53.210931,,0,gn,3a
gn|3b,,Groningen Perron 3b,6.56373,53.210931,,0,gn,3b
gn|4,,Groningen Perron 4,6.56373,53.210931,,0,gn,4
gn|4a,,Groningen Perron 4a,6.56373,53.210931,,0,gn,4a
gn|4b,,Groningen Perron 4b,6.56373,53.210931,,0,gn,4b
gn|6,,Groningen Perron 6,6.56373,53.210931,,0,gn,6
gn|6a,,Groningen Perron 6a,6.56373,53.210931,,0,gn,6a
gn|6b,,Groningen Perron 6b,6.56373,53.210931,,0,gn,6b
gn|7,,Groningen Perron 7,6.56373,53.210931,,0,gn,7
gn|7a,,Groningen Perron 7a,6.56373,53.210931,,0,gn,7a
gn|7b,,Groningen Perron 7b,6.56373,53.210931,,0,gn,7b
gnd,gnd,Hardinxveld-Giessendam,4.83520,51.830301,Europe/Amsterdam,1,,
gnd|0,,Hardinxveld-Giessendam,4.83520,51.830301,,0,gnd,
gnd|1,,Hardinxveld-Giessendam Perron 1,4.83520,51.830301,,0,gnd,1
gnd|2,,Hardinxveld-Giessendam Perron 2,4.83520,51.830301,,0,gnd,2
gnn,gnn,Groningen Noord,6.55631,53.230145,Europe/Amsterdam,1,,
gnn|0,,Groningen Noord,6.55631,53.230145,,0,gnn,
gnn|1,,Groningen Noord Perron 1,6.55631,53.230145,,0,gnn,1
gnn|2,,Groningen Noord Perron 2,6.55631,53.230145,,0,gnn,2
go,go,Goor,6.58603,52.230336,Europe/Amsterdam,1,,
go|0,,Goor,6.58603,52.230336,,0,go,
go|1,,Goor Perron 1,6.58603,52.230336,,0,go,1
go|2,,Goor Perron 2,6.58603,52.230336,,0,go,2
gp,gp,Geldrop,5.55080,51.420078,Europe/Amsterdam,1,,
gp|0,,Geldrop,5.55080,51.420078,,0,gp,
gp|1,,Geldrop Perron 1,5.55080,51.420078,,0,gp,1
gp|2,,Geldrop Perron 2,5.55080,51.420078,,0,gp,2
gr,gr,Gorinchem,4.96820,51.833728,Europe/Amsterdam,1,,
gr|0,,Gorinchem,4.96820,51.833728,,0,gr,
gr|1,,Gorinchem Perron 1,4.96820,51.833728,,0,gr,1
gr|2,,Gorinchem Perron 2,4.96820,51.833728,,0,gr,2
gs,gs,Goes,3.89071,51.498335,Europe/Amsterdam,1,,
gs|0,,Goes,3.89071,51.498335,,0,gs,
gs|1,,Goes Perron 1,3.89071,51.498335,,0,gs,1
gs|2,,Goes Perron 2,3.89071,51.498335,,0,gs,2
gv,gv,Den Haag HS,4.32263,52.070281,Europe/Amsterdam,1,,
gv|0,,Den Haag HS,4.32263,52.070281,,0,gv,
gv|1,,Den Haag HS Perron 1,4.32263,52.070281,,0,gv,1
gv|3,,Den Haag HS Perron 3,4.32263,52.070281,,0,gv,3
gv|4,,Den Haag HS Perron 4,4.32263,52.070281,,0,gv,4
gv|5,,Den Haag HS Perron 5,4.32263,52.070281,,0,gv,5
gv|6,,Den Haag HS Perron 6,4.32263,52.070281,,0,gv,6
gvc,gvc,Den Haag Centraal,4.32397,52.081259,Europe/Amsterdam,1,,
gvc|0,,Den Haag Centraal,4.32397,52.081259,,0,gvc,
gvc|1,,Den Haag Centraal Perron 1,4.32397,52.081259,,0,gvc,1
gvc|10,,Den Haag Centraal Perron 10,4.32397,52.081259,,0,gvc,10
gvc|2,,Den Haag Centraal Perron 2,4.32397,52.081259,,0,gvc,2
gvc|3,,Den Haag Centraal Perron 3,4.32397,52.081259,,0,gvc,3
gvc|4,,Den Haag Centraal Perron 4,4.32397,52.081259,,0,gvc,4
gvc|5,,Den Haag Centraal Perron 5,4.32397,52.081259,,0,gvc,5
gvc|6,,Den Haag Centraal Perron 6,4.32397,52.081259,,0,gvc,6
gvc|7,,Den Haag Centraal Perron 7,4.32397,52.081259,,0,gvc,7
gvc|8,,Den Haag Centraal Perron 8,4.32397,52.081259,,0,gvc,8
gvc|9,,Den Haag Centraal Perron 9,4.32397,52.081259,,0,gvc,9
gvm,gvm,Den Haag Mariahoeve,4.36985,52.091192,Europe/Amsterdam,1,,
gvm|0,,Den Haag Mariahoeve,4.36985,52.091192,,0,gvm,
gvm|1,,Den Haag Mariahoeve Perron 1,4.36985,52.091192,,0,gvm,1
gvm|2,,Den Haag Mariahoeve Perron 2,4.36985,52.091192,,0,gvm,2
gvm|3,,Den Haag Mariahoeve Perron 3,4.36985,52.091192,,0,gvm,3
gvm|4,,Den Haag Mariahoeve Perron 4,4.36985,52.091192,,0,gvm,4
gvmw,gvmw,Den Haag Moerwijk,4.30886,52.054515,Europe/Amsterdam,1,,
gvmw|0,,Den Haag Moerwijk,4.30886,52.054515,,0,gvmw,
gvmw|1,,Den Haag Moerwijk Perron 1,4.30886,52.054515,,0,gvmw,1
gvmw|2,,Den Haag Moerwijk Perron 2,4.30886,52.054515,,0,gvmw,2
gvmw|3,,Den Haag Moerwijk Perron 3,4.30886,52.054515,,0,gvmw,3
gvmw|4,,Den Haag Moerwijk Perron 4,4.30886,52.054515,,0,gvmw,4
gw,gw,Grou-Jirnsum,5.82231,53.090109,Europe/Amsterdam,1,,
gw|0,,Grou-Jirnsum,5.82231,53.090109,,0,gw,
gw|1,,Grou-Jirnsum Perron 1,5.82231,53.090109,,0,gw,1
gw|2,,Grou-Jirnsum Perron 2,5.82231,53.090109,,0,gw,2
gz,gz,Gilze-Rijen,4.92463,51.584041,Europe/Amsterdam,1,,
gz|0,,Gilze-Rijen,4.92463,51.584041,,0,gz,
gz|3,,Gilze-Rijen Perron 3,4.92463,51.584041,,0,gz,3
gz|4,,Gilze-Rijen Perron 4,4.92463,51.584041,,0,gz,4
had,had,Heemstede-Aerdenhout,4.60726,52.359412,Europe/Amsterdam,1,,
had|0,,Heemstede-Aerdenhout,4.60726,52.359412,,0,had,
had|1,,Heemstede-Aerdenhout Perron 1,4.60726,52.359412,,0,had,1
had|2,,Heemstede-Aerdenhout Perron 2,4.60726,52.359412,,0,had,2
hagen,hagen,Hagen Hbf,7.45939,51.361585,Europe/Amsterdam,1,,
hagen|0,,Hagen Hbf,7.45939,51.361585,,0,hagen,
hamm,hamm,Hamm (Westf.),7.80782,51.678039,Europe/Amsterdam,1,,
hamm|0,,Hamm (Westf.),7.80782,51.678039,,0,hamm,
hann,hann,Hannover Hbf,9.74095,52.376726,Europe/Amsterdam,1,,
hann|0,,Hannover Hbf,9.74095,52.376726,,0,hann,
hb,hb,Hoensbroek,5.93012,50.905751,Europe/Amsterdam,1,,
hb|0,,Hoensbroek,5.93012,50.905751,,0,hb,
hb|1,,Hoensbroek Perron 1,5.93012,50.905751,,0,hb,1
hb|2,,Hoensbroek Perron 2,5.93012,50.905751,,0,hb,2
hbzm,hbzm,Hardinxveld Blauwe Zoom,4.81084,51.817960,Europe/Amsterdam,1,,
hbzm|0,,Hardinxveld Blauwe Zoom,4.81084,51.817960,,0,hbzm,
hbzm|1,,Hardinxveld Blauwe Zoom Perron 1,4.81084,51.817960,,0,hbzm,1
hd,hd,Harderwijk,5.61991,52.337575,Europe/Amsterdam,1,,
hd|0,,Harderwijk,5.61991,52.337575,,0,hd,
hd|1,,Harderwijk Perron 1,5.61991,52.337575,,0,hd,1
hd|2,,Harderwijk Perron 2,5.61991,52.337575,,0,hd,2
hdb,hdb,Hardenberg,6.62763,52.572366,Europe/Amsterdam,1,,
hdb|0,,Hardenberg,6.62763,52.572366,,0,hdb,
hdb|1,,Hardenberg Perron 1,6.62763,52.572366,,0,hdb,1
hdb|2,,Hardenberg Perron 2,6.62763,52.572366,,0,hdb,2
hde,hde,Harde ('t),5.89217,52.409077,Europe/Amsterdam,1,,
hde|0,,Harde ('t),5.89217,52.409077,,0,hde,
hde|1,,Harde ('t) Perron 1,5.89217,52.409077,,0,hde,1
hde|2,,Harde ('t) Perron 2,5.89217,52.409077,,0,hde,2
hde|3,,Harde ('t) Perron 3,5.89217,52.409077,,0,hde,3
hdg,hdg,Hurdegaryp,5.93454,53.218776,Europe/Amsterdam,1,,
hdg|0,,Hurdegaryp,5.93454,53.218776,,0,hdg,
hdg|1,,Hurdegaryp Perron 1,5.93454,53.218776,,0,hdg,1
hdg|2,,Hurdegaryp Perron 2,5.93454,53.218776,,0,hdg,2
hdr,hdr,Den Helder,4.76073,52.956894,Europe/Amsterdam,1,,
hdr|0,,Den Helder,4.76073,52.956894,,0,hdr,
hdr|2,,Den Helder Perron 2,4.76073,52.956894,,0,hdr,2
hdr|3,,Den Helder Perron 3,4.76073,52.956894,,0,hdr,3
hdrz,hdrz,Den Helder Zuid,4.76434,52.932919,Europe/Amsterdam,1,,
hdrz|0,,Den Helder Zuid,4.76434,52.932919,,0,hdrz,
hdrz|1,,Den Helder Zuid Perron 1,4.76434,52.932919,,0,hdrz,1
hdrz|2,,Den Helder Zuid Perron 2,4.76434,52.932919,,0,hdrz,2
hfd,hfd,Hoofddorp,4.69785,52.292385,Europe/Amsterdam,1,,
hfd|0,,Hoofddorp,4.69785,52.292385,,0,hfd,
hfd|1,,Hoofddorp Perron 1,4.69785,52.292385,,0,hfd,1
hfd|2,,Hoofddorp Perron 2,4.69785,52.292385,,0,hfd,2
hfd|3,,Hoofddorp Perron 3,4.69785,52.292385,,0,hfd,3
hfd|4,,Hoofddorp Perron 4,4.69785,52.292385,,0,hfd,4
hgl,hgl,Hengelo,6.79359,52.262204,Europe/Amsterdam,1,,
hgl|0,,Hengelo,6.79359,52.262204,,0,hgl,
hgl|11,,Hengelo Perron 11,6.79359,52.262204,,0,hgl,11
hgl|2a,,Hengelo Perron 2a,6.79359,52.262204,,0,hgl,2a
hgl|2b,,Hengelo Perron 2b,6.79359,52.262204,,0,hgl,2b
hgl|3a,,Hengelo Perron 3a,6.79359,52.262204,,0,hgl,3a
hgl|3b,,Hengelo Perron 3b,6.79359,52.262204,,0,hgl,3b
hglo,hglo,Hengelo Oost,6.82048,52.269252,Europe/Amsterdam,1,,
hglo|0,,Hengelo Oost,6.82048,52.269252,,0,hglo,
hglo|1,,Hengelo Oost Perron 1,6.82048,52.269252,,0,hglo,1
hglo|2,,Hengelo Oost Perron 2,6.82048,52.269252,,0,hglo,2
hgv,hgv,Hoogeveen,6.47273,52.733595,Europe/Amsterdam,1,,
hgv|0,,Hoogeveen,6.47273,52.733595,,0,hgv,
hgv|1,,Hoogeveen Perron 1,6.47273,52.733595,,0,hgv,1
hgv|2,,Hoogeveen Perron 2,6.47273,52.733595,,0,hgv,2
hgz,hgz,Hoogezand-Sappemeer,6.77077,53.159834,Europe/Amsterdam,1,,
hgz|0,,Hoogezand-Sappemeer,6.77077,53.159834,,0,hgz,
hgz|1,,Hoogezand-Sappemeer Perron 1,6.77077,53.159834,,0,hgz,1
hgz|2,,Hoogezand-Sappemeer Perron 2,6.77077,53.159834,,0,hgz,2
hil,hil,Hillegom,4.56603,52.302688,Europe/Amsterdam,1,,
hil|0,,Hillegom,4.56603,52.302688,,0,hil,
hil|1,,Hillegom Perron 1,4.56603,52.302688,,0,hil,1
hil|2,,Hillegom Perron 2,4.56603,52.302688,,0,hil,2
hk,hk,Heemskerk,4.68557,52.494538,Europe/Amsterdam,1,,
hk|0,,Heemskerk,4.68557,52.494538,,0,hk,
hk|1,,Heemskerk Perron 1,4.68557,52.494538,,0,hk,1
hk|2,,Heemskerk Perron 2,4.68557,52.494538,,0,hk,2
hks,hks,Hoogkarspel,5.18236,52.690469,Europe/Amsterdam,1,,
hks|0,,Hoogkarspel,5.18236,52.690469,,0,hks,
hks|1,,Hoogkarspel Perron 1,5.18236,52.690469,,0,hks,1
hks|2,,Hoogkarspel Perron 2,5.18236,52.690469,,0,hks,2
hld,hld,Hoek van Holland Haven,4.12763,51.976219,Europe/Amsterdam,1,,
hld|0,,Hoek van Holland Haven,4.12763,51.976219,,0,hld,
hld|1,,Hoek van Holland Haven Perron 1,4.12763,51.976219,,0,hld,1
hld|2,,Hoek van Holland Haven Perron 2,4.12763,51.976219,,0,hld,2
hld|3,,Hoek van Holland Haven Perron 3,4.12763,51.976219,,0,hld,3
hlds,hlds,Hoek van Holland Strand,4.11932,51.981883,Europe/Amsterdam,1,,
hlds|0,,Hoek van Holland Strand,4.11932,51.981883,,0,hlds,
hlds|1,,Hoek van Holland Strand Perron 1,4.11932,51.981883,,0,hlds,1
hlds|2,,Hoek van Holland Strand Perron 2,4.11932,51.981883,,0,hlds,2
hlg,hlg,Harlingen,5.42519,53.170418,Europe/Amsterdam,1,,
hlg|0,,Harlingen,5.42519,53.170418,,0,hlg,
hlg|1,,Harlingen Perron 1,5.42519,53.170418,,0,hlg,1
hlg|2,,Harlingen Perron 2,5.42519,53.170418,,0,hlg,2
hlgh,hlgh,Harlingen Haven,5.41129,53.174915,Europe/Amsterdam,1,,
hlgh|0,,Harlingen Haven,5.41129,53.174915,,0,hlgh,
hlgh|1,,Harlingen Haven Perron 1,5.41129,53.174915,,0,hlgh,1
hlm,hlm,Haarlem,4.63848,52.388105,Europe/Amsterdam,1,,
hlm|0,,Haarlem,4.63848,52.388105,,0,hlm,
hlm|1,,Haarlem Perron 1,4.63848,52.388105,,0,hlm,1
hlm|3,,Haarlem Perron 3,4.63848,52.388105,,0,hlm,3
hlm|3a,,Haarlem Perron 3a,4.63848,52.388105,,0,hlm,3a
hlm|3b,,Haarlem Perron 3b,4.63848,52.388105,,0,hlm,3b
hlm|4,,Haarlem Perron 4,4.63848,52.388105,,0,hlm,4
hlm|5,,Haarlem Perron 5,4.63848,52.388105,,0,hlm,5
hlm|6,,Haarlem Perron 6,4.63848,52.388105,,0,hlm,6
hlm|8,,Haarlem Perron 8,4.63848,52.388105,,0,hlm,8
hlms,hlms,Haarlem Spaarnwoude,4.67117,52.383004,Europe/Amsterdam,1,,
hlms|0,,Haarlem Spaarnwoude,4.67117,52.383004,,0,hlms,
hlms|1,,Haarlem Spaarnwoude Perron 1,4.67117,52.383004,,0,hlms,1
hlms|2,,Haarlem Spaarnwoude Perron 2,4.67117,52.383004,,0,hlms,2
hlo,hlo,Heiloo,4.70101,52.600142,Europe/Amsterdam,1,,
hlo|0,,Heiloo,4.70101,52.600142,,0,hlo,
hlo|1,,Heiloo Perron 1,4.70101,52.600142,,0,hlo,1
hlo|2,,Heiloo Perron 2,4.70101,52.600142,,0,hlo,2
hm,hm,Helmond,5.66169,51.475870,Europe/Amsterdam,1,,
hm|0,,Helmond,5.66169,51.475870,,0,hm,
hm|1,,Helmond Perron 1,5.66169,51.475870,,0,hm,1
hm|2,,Helmond Perron 2,5.66169,51.475870,,0,hm,2
hmbh,hmbh,Helmond Brouwhuis,5.70053,51.471278,Europe/Amsterdam,1,,
hmbh|0,,Helmond Brouwhuis,5.70053,51.471278,,0,hmbh,
hmbh|1,,Helmond Brouwhuis Perron 1,5.70053,51.471278,,0,hmbh,1
hmbh|2,,Helmond Brouwhuis Perron 2,5.70053,51.471278,,0,hmbh,2
hmbv,hmbv,Helmond Brandevoort,5.60880,51.462499,Europe/Amsterdam,1,,
hmbv|0,,Helmond Brandevoort,5.60880,51.462499,,0,hmbv,
hmbv|1,,Helmond Brandevoort Perron 1,5.60880,51.462499,,0,hmbv,1
hmbv|2,,Helmond Brandevoort Perron 2,5.60880,51.462499,,0,hmbv,2
hmh,hmh,Helmond 't Hout,5.63085,51.467938,Europe/Amsterdam,1,,
hmh|0,,Helmond 't Hout,5.63085,51.467938,,0,hmh,
hmh|1,,Helmond 't Hout Perron 1,5.63085,51.467938,,0,hmh,1
hmh|2,,Helmond 't Hout Perron 2,5.63085,51.467938,,0,hmh,2
hmn,hmn,Hemmen-Dodewaard,5.67372,51.922211,Europe/Amsterdam,1,,
hmn|0,,Hemmen-Dodewaard,5.67372,51.922211,,0,hmn,
hmn|1,,Hemmen-Dodewaard Perron 1,5.67372,51.922211,,0,hmn,1
hmn|2,,Hemmen-Dodewaard Perron 2,5.67372,51.922211,,0,hmn,2
hn,hn,Hoorn,5.05462,52.645065,Europe/Amsterdam,1,,
hn|0,,Hoorn,5.05462,52.645065,,0,hn,
hn|1,,Hoorn Perron 1,5.05462,52.645065,,0,hn,1
hn|2,,Hoorn Perron 2,5.05462,52.645065,,0,hn,2
hn|3,,Hoorn Perron 3,5.05462,52.645065,,0,hn,3
hnk,hnk,Hoorn Kersenboogerd,5.08470,52.653144,Europe/Amsterdam,1,,
hnk|0,,Hoorn Kersenboogerd,5.08470,52.653144,,0,hnk,
hnk|1,,Hoorn Kersenboogerd Perron 1,5.08470,52.653144,,0,hnk,1
hnk|2,,Hoorn Kersenboogerd Perron 2,5.08470,52.653144,,0,hnk,2
hno,hno,Heino,6.22143,52.427348,Europe/Amsterdam,1,,
hno|0,,Heino,6.22143,52.427348,,0,hno,
hno|1,,Heino Perron 1,6.22143,52.427348,,0,hno,1
hno|2,,Heino Perron 2,6.22143,52.427348,,0,hno,2
hnp,hnp,Hindeloopen,5.42306,52.946488,Europe/Amsterdam,1,,
hnp|0,,Hindeloopen,5.42306,52.946488,,0,hnp,
hnp|1,,Hindeloopen Perron 1,5.42306,52.946488,,0,hnp,1
hon,hon,Holten,6.42143,52.284115,Europe/Amsterdam,1,,
hon|0,,Holten,6.42143,52.284115,,0,hon,
hon|1,,Holten Perron 1,6.42143,52.284115,,0,hon,1
hon|2,,Holten Perron 2,6.42143,52.284115,,0,hon,2
hor,hor,Hollandsche Rading,5.17916,52.178088,Europe/Amsterdam,1,,
hor|0,,Hollandsche Rading,5.17916,52.178088,,0,hor,
hor|1,,Hollandsche Rading Perron 1,5.17916,52.178088,,0,hor,1
hor|2,,Hollandsche Rading Perron 2,5.17916,52.178088,,0,hor,2
hr,hr,Heerenveen,5.91552,52.960692,Europe/Amsterdam,1,,
hr|0,,Heerenveen,5.91552,52.960692,,0,hr,
hr|2,,Heerenveen Perron 2,5.91552,52.960692,,0,hr,2
hr|3,,Heerenveen Perron 3,5.91552,52.960692,,0,hr,3
hrl,hrl,Heerlen,5.97542,50.890607,Europe/Amsterdam,1,,
hrl|0,,Heerlen,5.97542,50.890607,,0,hrl,
hrl|1,,Heerlen Perron 1,5.97542,50.890607,,0,hrl,1
hrl|2,,Heerlen Perron 2,5.97542,50.890607,,0,hrl,2
hrl|4,,Heerlen Perron 4,5.97542,50.890607,,0,hrl,4
hrl|5,,Heerlen Perron 5,5.97542,50.890607,,0,hrl,5
hrlk,hrlk,Heerlen De Kissel,5.99831,50.891028,Europe/Amsterdam,1,,
hrlk|0,,Heerlen De Kissel,5.99831,50.891028,,0,hrlk,
hrlk|1,,Heerlen De Kissel Perron 1,5.99831,50.891028,,0,hrlk,1
hrlw,hrlw,Heerlen Woonboulevard,5.95252,50.888654,Europe/Amsterdam,1,,
hrlw|0,,Heerlen Woonboulevard,5.95252,50.888654,,0,hrlw,
hrlw|1,,Heerlen Woonboulevard Perron 1,5.95252,50.888654,,0,hrlw,1
hrlw|2,,Heerlen Woonboulevard Perron 2,5.95252,50.888654,,0,hrlw,2
hrn,hrn,Haren,6.61809,53.174889,Europe/Amsterdam,1,,
hrn|0,,Haren,6.61809,53.174889,,0,hrn,
hrn|1,,Haren Perron 1,6.61809,53.174889,,0,hrn,1
hrn|2,,Haren Perron 2,6.61809,53.174889,,0,hrn,2
hrt,hrt,Horst-Sevenum,6.04186,51.427074,Europe/Amsterdam,1,,
hrt|0,,Horst-Sevenum,6.04186,51.427074,,0,hrt,
hrt|1,,Horst-Sevenum Perron 1,6.04186,51.427074,,0,hrt,1
hrt|2,,Horst-Sevenum Perron 2,6.04186,51.427074,,0,hrt,2
ht,ht,Hertogenbosch ('s),5.29479,51.690534,Europe/Amsterdam,1,,
ht|0,,Hertogenbosch ('s),5.29479,51.690534,,0,ht,
ht|1,,Hertogenbosch ('s) Perron 1,5.29479,51.690534,,0,ht,1
ht|1a,,Hertogenbosch ('s) Perron 1a,5.29479,51.690534,,0,ht,1a
ht|1b,,Hertogenbosch ('s) Perron 1b,5.29479,51.690534,,0,ht,1b
ht|3,,Hertogenbosch ('s) Perron 3,5.29479,51.690534,,0,ht,3
ht|3a,,Hertogenbosch ('s) Perron 3a,5.29479,51.690534,,0,ht,3a
ht|3b,,Hertogenbosch ('s) Perron 3b,5.29479,51.690534,,0,ht,3b
ht|4a,,Hertogenbosch ('s) Perron 4a,5.29479,51.690534,,0,ht,4a
ht|4b,,Hertogenbosch ('s) Perron 4b,5.29479,51.690534,,0,ht,4b
ht|5b,,Hertogenbosch ('s) Perron 5b,5.29479,51.690534,,0,ht,5b
htn,htn,Houten,5.16802,52.034709,Europe/Amsterdam,1,,
htn|0,,Houten,5.16802,52.034709,,0,htn,
htn|1,,Houten Perron 1,5.16802,52.034709,,0,htn,1
htn|2,,Houten Perron 2,5.16802,52.034709,,0,htn,2
htnc,htnc,Houten Castellum,5.17947,52.017293,Europe/Amsterdam,1,,
htnc|0,,Houten Castellum,5.17947,52.017293,,0,htnc,
htnc|1,,Houten Castellum Perron 1,5.17947,52.017293,,0,htnc,1
htnc|2,,Houten Castellum Perron 2,5.17947,52.017293,,0,htnc,2
hto,hto,Hertogenb ('s) Oost,5.31849,51.700797,Europe/Amsterdam,1,,
hto|0,,Hertogenb ('s) Oost,5.31849,51.700797,,0,hto,
hto|1,,Hertogenb ('s) Oost Perron 1,5.31849,51.700797,,0,hto,1
hto|2,,Hertogenb ('s) Oost Perron 2,5.31849,51.700797,,0,hto,2
hvs,hvs,Hilversum,5.18128,52.226357,Europe/Amsterdam,1,,
hvs|0,,Hilversum,5.18128,52.226357,,0,hvs,
hvs|1,,Hilversum Perron 1,5.18128,52.226357,,0,hvs,1
hvs|2,,Hilversum Perron 2,5.18128,52.226357,,0,hvs,2
hvs|3,,Hilversum Perron 3,5.18128,52.226357,,0,hvs,3
hvs|4,,Hilversum Perron 4,5.18128,52.226357,,0,hvs,4
hvs|5,,Hilversum Perron 5,5.18128,52.226357,,0,hvs,5
hvsn,hvsn,Hilversum Noord,5.17405,52.238657,Europe/Amsterdam,1,,
hvsn|0,,Hilversum Noord,5.17405,52.238657,,0,hvsn,
hvsn|1,,Hilversum Noord Perron 1,5.17405,52.238657,,0,hvsn,1
hvsn|2,,Hilversum Noord Perron 2,5.17405,52.238657,,0,hvsn,2
hvsp,hvsp,Hilversum Sportpark,5.18732,52.216391,Europe/Amsterdam,1,,
hvsp|0,,Hilversum Sportpark,5.18732,52.216391,,0,hvsp,
hvsp|1,,Hilversum Sportpark Perron 1,5.18732,52.216391,,0,hvsp,1
hvsp|2,,Hilversum Sportpark Perron 2,5.18732,52.216391,,0,hvsp,2
hwd,hwd,Heerhugowaard,4.82409,52.670620,Europe/Amsterdam,1,,
hwd|0,,Heerhugowaard,4.82409,52.670620,,0,hwd,
hwd|1,,Heerhugowaard Perron 1,4.82409,52.670620,,0,hwd,1
hwd|2,,Heerhugowaard Perron 2,4.82409,52.670620,,0,hwd,2
hwd|3,,Heerhugowaard Perron 3,4.82409,52.670620,,0,hwd,3
hwob,hwob,Wolfsburg,10.78820,52.429479,Europe/Amsterdam,1,,
hwob|0,,Wolfsburg,10.78820,52.429479,,0,hwob,
hz,hz,Herzogenrath,6.09450,50.870884,Europe/Amsterdam,1,,
hz|0,,Herzogenrath,6.09450,50.870884,,0,hz,
hze,hze,Heeze,5.56964,51.385264,Europe/Amsterdam,1,,
hze|0,,Heeze,5.56964,51.385264,,0,hze,
hze|1,,Heeze Perron 1,5.56964,51.385264,,0,hze,1
hze|2,,Heeze Perron 2,5.56964,51.385264,,0,hze,2
ijt,ijt,IJlst,5.61608,53.014659,Europe/Amsterdam,1,,
ijt|0,,IJlst,5.61608,53.014659,,0,ijt,
ijt|1,,IJlst Perron 1,5.61608,53.014659,,0,ijt,1
karlsr,karlsr,Karlsruhe Hbf,8.40043,48.993571,Europe/Amsterdam,1,,
karlsr|0,,Karlsruhe Hbf,8.40043,48.993571,,0,karlsr,
kbd,kbd,Krabbendijke,4.11736,51.433058,Europe/Amsterdam,1,,
kbd|0,,Krabbendijke,4.11736,51.433058,,0,kbd,
kbd|1,,Krabbendijke Perron 1,4.11736,51.433058,,0,kbd,1
kbd|2,,Krabbendijke Perron 2,4.11736,51.433058,,0,kbd,2
kbk,kbk,Klarenbeek,6.08459,52.177827,Europe/Amsterdam,1,,
kbk|0,,Klarenbeek,6.08459,52.177827,,0,kbk,
kbk|1,,Klarenbeek Perron 1,6.08459,52.177827,,0,kbk,1
kbk|2,,Klarenbeek Perron 2,6.08459,52.177827,,0,kbk,2
kboi,kboi,Boisheim,6.27442,51.274429,Europe/Amsterdam,1,,
kboi|0,,Boisheim,6.27442,51.274429,,0,kboi,
kbry,kbry,Breyell,6.23999,51.295361,Europe/Amsterdam,1,,
kbry|0,,Breyell,6.23999,51.295361,,0,kbry,
kbw,kbw,Koog Bloemwijk,4.80591,52.457980,Europe/Amsterdam,1,,
kbw|0,,Koog Bloemwijk,4.80591,52.457980,,0,kbw,
kbw|1,,Koog Bloemwijk Perron 1,4.80591,52.457980,,0,kbw,1
kbw|2,,Koog Bloemwijk Perron 2,4.80591,52.457980,,0,kbw,2
kdr,kdr,Dueren,6.49691,50.809201,Europe/Amsterdam,1,,
kdr|0,,Dueren,6.49691,50.809201,,0,kdr,
kdul,kdul,Duelken,6.33870,51.257021,Europe/Amsterdam,1,,
kdul|0,,Duelken,6.33870,51.257021,,0,kdul,
kkd,kkd,Koeln Deutz,6.97460,50.940906,Europe/Amsterdam,1,,
kkd|0,,Koeln Deutz,6.97460,50.940906,,0,kkd,
kko,kko,Koblenz Hbf,7.58863,50.351088,Europe/Amsterdam,1,,
kko|0,,Koblenz Hbf,7.58863,50.351088,,0,kko,
klp,klp,Veenendaal-De Klomp,5.57335,52.045821,Europe/Amsterdam,1,,
klp|0,,Veenendaal-De Klomp,5.57335,52.045821,,0,klp,
klp|1,,Veenendaal-De Klomp Perron 1,5.57335,52.045821,,0,klp,1
klp|2,,Veenendaal-De Klomp Perron 2,5.57335,52.045821,,0,klp,2
kma,kma,Krommenie-Assendelft,4.75418,52.495104,Europe/Amsterdam,1,,
kma|0,,Krommenie-Assendelft,4.75418,52.495104,,0,kma,
kma|1,,Krommenie-Assendelft Perron 1,4.75418,52.495104,,0,kma,1
kma|2,,Krommenie-Assendelft Perron 2,4.75418,52.495104,,0,kma,2
kmb,kmb,Montabaur,7.82565,50.444847,Europe/Amsterdam,1,,
kmb|0,,Montabaur,7.82565,50.444847,,0,kmb,
kmr,kmr,Klimmen-Ransdaal,5.89032,50.866649,Europe/Amsterdam,1,,
kmr|0,,Klimmen-Ransdaal,5.89032,50.866649,,0,kmr,
kmr|1,,Klimmen-Ransdaal Perron 1,5.89032,50.866649,,0,kmr,1
kmr|2,,Klimmen-Ransdaal Perron 2,5.89032,50.866649,,0,kmr,2
kmw,kmw,Koudum-Molkwerum,5.41069,52.902818,Europe/Amsterdam,1,,
kmw|0,,Koudum-Molkwerum,5.41069,52.902818,,0,kmw,
kmw|1,,Koudum-Molkwerum Perron 1,5.41069,52.902818,,0,kmw,1
kn,kn,Kaldenkirchen,6.20270,51.327180,Europe/Amsterdam,1,,
kn|0,,Kaldenkirchen,6.20270,51.327180,,0,kn,
kohl,kohl,Kohlscheid,6.07446,50.831722,Europe/Amsterdam,1,,
kohl|0,,Kohlscheid,6.07446,50.831722,,0,kohl,
koln,koln,Koeln Hbf,6.98271,50.932523,Europe/Amsterdam,1,,
koln|0,,Koeln Hbf,6.98271,50.932523,,0,koln,
kpn,kpn,Kampen,5.92177,52.559757,Europe/Amsterdam,1,,
kpn|0,,Kampen,5.92177,52.559757,,0,kpn,
kpn|1,,Kampen Perron 1,5.92177,52.559757,,0,kpn,1
krd,krd,Kerkrade Centrum,6.05728,50.861128,Europe/Amsterdam,1,,
krd|0,,Kerkrade Centrum,6.05728,50.861128,,0,krd,
krd|1,,Kerkrade Centrum Perron 1,6.05728,50.861128,,0,krd,1
krd|2,,Kerkrade Centrum Perron 2,6.05728,50.861128,,0,krd,2
krg,krg,Kruiningen-Yerseke,4.03644,51.465322,Europe/Amsterdam,1,,
krg|0,,Kruiningen-Yerseke,4.03644,51.465322,,0,krg,
krg|1,,Kruiningen-Yerseke Perron 1,4.03644,51.465322,,0,krg,1
krg|2,,Kruiningen-Yerseke Perron 2,4.03644,51.465322,,0,krg,2
ksb,ksb,Siegburg,7.20334,50.794052,Europe/Amsterdam,1,,
ksb|0,,Siegburg,7.20334,50.794052,,0,ksb,
kswe,kswe,Schwelm,7.29070,51.290649,Europe/Amsterdam,1,,
kswe|0,,Schwelm,7.29070,51.290649,,0,kswe,
ktr,ktr,Kesteren,5.58334,51.931385,Europe/Amsterdam,1,,
ktr|0,,Kesteren,5.58334,51.931385,,0,ktr,
ktr|3,,Kesteren Perron 3,5.58334,51.931385,,0,ktr,3
ktr|4,,Kesteren Perron 4,5.58334,51.931385,,0,ktr,4
kw,kw,Kropswolde,6.72209,53.161734,Europe/Amsterdam,1,,
kw|0,,Kropswolde,6.72209,53.161734,,0,kw,
kw|1,,Kropswolde Perron 1,6.72209,53.161734,,0,kw,1
kw|2,,Kropswolde Perron 2,6.72209,53.161734,,0,kw,2
kwba,kwba,Wuppertal-Barmen,7.19599,51.267076,Europe/Amsterdam,1,,
kwba|0,,Wuppertal-Barmen,7.19599,51.267076,,0,kwba,
kwo,kwo,Wuppertal Oberbarmen,7.22149,51.273869,Europe/Amsterdam,1,,
kwo|0,,Wuppertal Oberbarmen,7.22149,51.273869,,0,kwo,
kzd,kzd,Koog-Zaandijk,4.80533,52.468403,Europe/Amsterdam,1,,
kzd|0,,Koog-Zaandijk,4.80533,52.468403,,0,kzd,
kzd|1,,Koog-Zaandijk Perron 1,4.80533,52.468403,,0,kzd,1
kzd|2,,Koog-Zaandijk Perron 2,4.80533,52.468403,,0,kzd,2
laa,laa,Den Haag Laan v NOI,4.34342,52.079365,Europe/Amsterdam,1,,
laa|0,,Den Haag Laan v NOI,4.34342,52.079365,,0,laa,
laa|3,,Den Haag Laan v NOI Perron 3,4.34342,52.079365,,0,laa,3
laa|4,,Den Haag Laan v NOI Perron 4,4.34342,52.079365,,0,laa,4
laa|5,,Den Haag Laan v NOI Perron 5,4.34342,52.079365,,0,laa,5
laa|6,,Den Haag Laan v NOI Perron 6,4.34342,52.079365,,0,laa,6
landry,landry,Landry,6.73582,45.570617,Europe/Amsterdam,1,,
landry|0,,Landry,6.73582,45.570617,,0,landry,
lang,lang,Langerwehe,6.35535,50.817575,Europe/Amsterdam,1,,
lang|0,,Langerwehe,6.35535,50.817575,,0,lang,
lc,lc,Lochem,6.42613,52.165606,Europe/Amsterdam,1,,
lc|0,,Lochem,6.42613,52.165606,,0,lc,
lc|1,,Lochem Perron 1,6.42613,52.165606,,0,lc,1
lc|2,,Lochem Perron 2,6.42613,52.165606,,0,lc,2
ldl,ldl,Leiden Lammenschans,4.49263,52.146748,Europe/Amsterdam,1,,
ldl|0,,Leiden Lammenschans,4.49263,52.146748,,0,ldl,
ldl|1,,Leiden Lammenschans Perron 1,4.49263,52.146748,,0,ldl,1
ldm,ldm,Leerdam,5.09345,51.894510,Europe/Amsterdam,1,,
ldm|0,,Leerdam,5.09345,51.894510,,0,ldm,
ldm|1,,Leerdam Perron 1,5.09345,51.894510,,0,ldm,1
ldm|2,,Leerdam Perron 2,5.09345,51.894510,,0,ldm,2
ledn,ledn,Leiden Centraal,4.48302,52.166539,Europe/Amsterdam,1,,
ledn|0,,Leiden Centraal,4.48302,52.166539,,0,ledn,
ledn|1,,Leiden Centraal Perron 1,4.48302,52.166539,,0,ledn,1
ledn|2,,Leiden Centraal Perron 2,4.48302,52.166539,,0,ledn,2
ledn|4,,Leiden Centraal Perron 4,4.48302,52.166539,,0,ledn,4
ledn|4a,,Leiden Centraal Perron 4a,4.48302,52.166539,,0,ledn,4a
ledn|4b,,Leiden Centraal Perron 4b,4.48302,52.166539,,0,ledn,4b
ledn|5,,Leiden Centraal Perron 5,4.48302,52.166539,,0,ledn,5
ledn|5a,,Leiden Centraal Perron 5a,4.48302,52.166539,,0,ledn,5a
ledn|5b,,Leiden Centraal Perron 5b,4.48302,52.166539,,0,ledn,5b
ledn|8a,,Leiden Centraal Perron 8a,4.48302,52.166539,,0,ledn,8a
ledn|8b,,Leiden Centraal Perron 8b,4.48302,52.166539,,0,ledn,8b
ledn|9,,Leiden Centraal Perron 9,4.48302,52.166539,,0,ledn,9
ledn|9a,,Leiden Centraal Perron 9a,4.48302,52.166539,,0,ledn,9a
ledn|9b,,Leiden Centraal Perron 9b,4.48302,52.166539,,0,ledn,9b
leer,leer,Leer (Ostfriesland),7.46522,53.231688,Europe/Amsterdam,1,,
leer|0,,Leer (Ostfriesland),7.46522,53.231688,,0,leer,
lg,lg,Landgraaf,6.01956,50.896487,Europe/Amsterdam,1,,
lg|0,,Landgraaf,6.01956,50.896487,,0,lg,
lg|1,,Landgraaf Perron 1,6.01956,50.896487,,0,lg,1
lg|2,,Landgraaf Perron 2,6.01956,50.896487,,0,lg,2
lg|3,,Landgraaf Perron 3,6.01956,50.896487,,0,lg,3
lkp,lkp,Kapellen,4.43343,51.311031,Europe/Amsterdam,1,,
lkp|0,,Kapellen,4.43343,51.311031,,0,lkp,
lls,lls,Lelystad Centrum,5.47278,52.507906,Europe/Amsterdam,1,,
lls|0,,Lelystad Centrum,5.47278,52.507906,,0,lls,
lls|1,,Lelystad Centrum Perron 1,5.47278,52.507906,,0,lls,1
lls|2,,Lelystad Centrum Perron 2,5.47278,52.507906,,0,lls,2
lls|3,,Lelystad Centrum Perron 3,5.47278,52.507906,,0,lls,3
lls|4,,Lelystad Centrum Perron 4,5.47278,52.507906,,0,lls,4
londs,londs,London St.Pancras,0.12645,51.531037,Europe/London,1,,
londs|0,,London St.Pancras,0.12645,51.531037,,0,londs,
lp,lp,Loppersum,6.74726,53.334712,Europe/Amsterdam,1,,
lp|0,,Loppersum,6.74726,53.334712,,0,lp,
lp|1,,Loppersum Perron 1,6.74726,53.334712,,0,lp,1
lp|2,,Loppersum Perron 2,6.74726,53.334712,,0,lp,2
ls,ls,Stendal,11.85439,52.594739,Europe/Amsterdam,1,,
ls|0,,Stendal,11.85439,52.594739,,0,ls,
ltn,ltn,Lunteren,5.62399,52.085187,Europe/Amsterdam,1,,
ltn|0,,Lunteren,5.62399,52.085187,,0,ltn,
ltn|1,,Lunteren Perron 1,5.62399,52.085187,,0,ltn,1
ltn|2,,Lunteren Perron 2,5.62399,52.085187,,0,ltn,2
ltv,ltv,Lichtenvoorde-Groenlo,6.59462,52.012539,Europe/Amsterdam,1,,
ltv|0,,Lichtenvoorde-Groenlo,6.59462,52.012539,,0,ltv,
ltv|1,,Lichtenvoorde-Groenlo Perron 1,6.59462,52.012539,,0,ltv,1
ltv|2,,Lichtenvoorde-Groenlo Perron 2,6.59462,52.012539,,0,ltv,2
luik,luik,Liege-Guillemins,5.63082,50.626858,Europe/Amsterdam,1,,
luik|0,,Liege-Guillemins,5.63082,50.626858,,0,luik,
lut,lut,Geleen-Lutterade,5.82501,50.975321,Europe/Amsterdam,1,,
lut|0,,Geleen-Lutterade,5.82501,50.975321,,0,lut,
lut|1,,Geleen-Lutterade Perron 1,5.82501,50.975321,,0,lut,1
lut|2,,Geleen-Lutterade Perron 2,5.82501,50.975321,,0,lut,2
lw,lw,Leeuwarden,5.79271,53.196516,Europe/Amsterdam,1,,
lw|0,,Leeuwarden,5.79271,53.196516,,0,lw,
lw|1,,Leeuwarden Perron 1,5.79271,53.196516,,0,lw,1
lw|2,,Leeuwarden Perron 2,5.79271,53.196516,,0,lw,2
lw|3,,Leeuwarden Perron 3,5.79271,53.196516,,0,lw,3
lw|4,,Leeuwarden Perron 4,5.79271,53.196516,,0,lw,4
lw|5a,,Leeuwarden Perron 5a,5.79271,53.196516,,0,lw,5a
lw|5b,,Leeuwarden Perron 5b,5.79271,53.196516,,0,lw,5b
lw|8,,Leeuwarden Perron 8,5.79271,53.196516,,0,lw,8
lwc,lwc,Leeuwarden Camminghaburen,5.84229,53.202179,Europe/Amsterdam,1,,
lwc|0,,Leeuwarden Camminghaburen,5.84229,53.202179,,0,lwc,
lwc|1,,Leeuwarden Camminghaburen Perron 1,5.84229,53.202179,,0,lwc,1
ma,ma,Augsburg Hbf,10.88560,48.365473,Europe/Amsterdam,1,,
ma|0,,Augsburg Hbf,10.88560,48.365473,,0,ma,
mannhe,mannhe,Mannheim Hbf,8.46986,49.479633,Europe/Amsterdam,1,,
mannhe|0,,Mannheim Hbf,8.46986,49.479633,,0,mannhe,
marne,marne,Marne-la-Vallee-Chessy,2.81406,48.863180,Europe/Amsterdam,1,,
marne|0,,Marne-la-Vallee-Chessy,2.81406,48.863180,,0,marne,
mars,mars,Marseille-St-Charles,5.39269,43.321228,Europe/Amsterdam,1,,
mars|0,,Marseille-St-Charles,5.39269,43.321228,,0,mars,
mas,mas,Maarssen,5.03315,52.135587,Europe/Amsterdam,1,,
mas|0,,Maarssen,5.03315,52.135587,,0,mas,
mas|2,,Maarssen Perron 2,5.03315,52.135587,,0,mas,2
mas|3,,Maarssen Perron 3,5.03315,52.135587,,0,mas,3
mcgb,mcgb,Moenchengladbach Hbf,6.44618,51.196582,Europe/Amsterdam,1,,
mcgb|0,,Moenchengladbach Hbf,6.44618,51.196582,,0,mcgb,
mdb,mdb,Middelburg,3.61817,51.495243,Europe/Amsterdam,1,,
mdb|0,,Middelburg,3.61817,51.495243,,0,mdb,
mdb|1,,Middelburg Perron 1,3.61817,51.495243,,0,mdb,1
mdb|2,,Middelburg Perron 2,3.61817,51.495243,,0,mdb,2
mech,mech,Mechelen,4.47432,51.015612,Europe/Amsterdam,1,,
mech|0,,Mechelen,4.47432,51.015612,,0,mech,
mes,mes,Meerssen,5.75081,50.882723,Europe/Amsterdam,1,,
mes|0,,Meerssen,5.75081,50.882723,,0,mes,
mes|1,,Meerssen Perron 1,5.75081,50.882723,,0,mes,1
mes|2,,Meerssen Perron 2,5.75081,50.882723,,0,mes,2
mg,mg,Mantgum,5.71320,53.129635,Europe/Amsterdam,1,,
mg|0,,Mantgum,5.71320,53.129635,,0,mg,
mg|1,,Mantgum Perron 1,5.71320,53.129635,,0,mg,1
mg|2,,Mantgum Perron 2,5.71320,53.129635,,0,mg,2
mgzb,mgzb,Guenzburg,10.27877,48.460218,Europe/Amsterdam,1,,
mgzb|0,,Guenzburg,10.27877,48.460218,,0,mgzb,
mid,mid,Heide,4.45916,51.364904,Europe/Amsterdam,1,,
mid|0,,Heide,4.45916,51.364904,,0,mid,
minden,minden,Minden (Westf.),8.93515,52.289857,Europe/Amsterdam,1,,
minden|0,,Minden (Westf.),8.93515,52.289857,,0,minden,
mmlh,mmlh,Mook Molenhoek,5.88154,51.771592,Europe/Amsterdam,1,,
mmlh|0,,Mook Molenhoek,5.88154,51.771592,,0,mmlh,
mmlh|1,,Mook Molenhoek Perron 1,5.88154,51.771592,,0,mmlh,1
mmlh|2,,Mook Molenhoek Perron 2,5.88154,51.771592,,0,mmlh,2
mout,mout,Moutiers-Salins-Brides,6.52140,45.480520,Europe/Amsterdam,1,,
mout|0,,Moutiers-Salins-Brides,6.52140,45.480520,,0,mout,
mp,mp,Meppel,6.19761,52.691928,Europe/Amsterdam,1,,
mp|0,,Meppel,6.19761,52.691928,,0,mp,
mp|2,,Meppel Perron 2,6.19761,52.691928,,0,mp,2
mp|3,,Meppel Perron 3,6.19761,52.691928,,0,mp,3
mrb,mrb,Marienberg,6.57429,52.509006,Europe/Amsterdam,1,,
mrb|0,,Marienberg,6.57429,52.509006,,0,mrb,
mrb|1,,Marienberg Perron 1,6.57429,52.509006,,0,mrb,1
mrb|2,,Marienberg Perron 2,6.57429,52.509006,,0,mrb,2
mrb|3,,Marienberg Perron 3,6.57429,52.509006,,0,mrb,3
mrn,mrn,Maarn,5.37043,52.064482,Europe/Amsterdam,1,,
mrn|0,,Maarn,5.37043,52.064482,,0,mrn,
mrn|1,,Maarn Perron 1,5.37043,52.064482,,0,mrn,1
mrn|2,,Maarn Perron 2,5.37043,52.064482,,0,mrn,2
mss,mss,Maassluis,4.25359,51.916735,Europe/Amsterdam,1,,
mss|0,,Maassluis,4.25359,51.916735,,0,mss,
mss|3,,Maassluis Perron 3,4.25359,51.916735,,0,mss,3
mss|4,,Maassluis Perron 4,4.25359,51.916735,,0,mss,4
msw,msw,Maassluis West,4.23576,51.926000,Europe/Amsterdam,1,,
msw|0,,Maassluis West,4.23576,51.926000,,0,msw,
msw|1,,Maassluis West Perron 1,4.23576,51.926000,,0,msw,1
msw|2,,Maassluis West Perron 2,4.23576,51.926000,,0,msw,2
mt,mt,Maastricht,5.70554,50.849957,Europe/Amsterdam,1,,
mt|0,,Maastricht,5.70554,50.849957,,0,mt,
mt|1,,Maastricht Perron 1,5.70554,50.849957,,0,mt,1
mt|2,,Maastricht Perron 2,5.70554,50.849957,,0,mt,2
mt|3,,Maastricht Perron 3,5.70554,50.849957,,0,mt,3
mt|4a,,Maastricht Perron 4a,5.70554,50.849957,,0,mt,4a
mt|4b,,Maastricht Perron 4b,5.70554,50.849957,,0,mt,4b
mt|5a,,Maastricht Perron 5a,5.70554,50.849957,,0,mt,5a
mt|5b,,Maastricht Perron 5b,5.70554,50.849957,,0,mt,5b
mt|6,,Maastricht Perron 6,5.70554,50.849957,,0,mt,6
mth,mth,Martenshoek,6.74030,53.160721,Europe/Amsterdam,1,,
mth|0,,Martenshoek,6.74030,53.160721,,0,mth,
mth|1,,Martenshoek Perron 1,6.74030,53.160721,,0,mth,1
mth|2,,Martenshoek Perron 2,6.74030,53.160721,,0,mth,2
mtr,mtr,Maastricht Randwyck,5.71767,50.837788,Europe/Amsterdam,1,,
mtr|0,,Maastricht Randwyck,5.71767,50.837788,,0,mtr,
mtr|1,,Maastricht Randwyck Perron 1,5.71767,50.837788,,0,mtr,1
mtr|2,,Maastricht Randwyck Perron 2,5.71767,50.837788,,0,mtr,2
mtr|3,,Maastricht Randwyck Perron 3,5.71767,50.837788,,0,mtr,3
munchh,munchh,Muenchen Hbf,11.55841,48.140183,Europe/Amsterdam,1,,
munchh|0,,Muenchen Hbf,11.55841,48.140183,,0,munchh,
munst,munst,Muenster (Westf) Hbf,7.63584,51.956874,Europe/Amsterdam,1,,
munst|0,,Muenster (Westf) Hbf,7.63584,51.956874,,0,munst,
mz,mz,Maarheeze,5.61662,51.299968,Europe/Amsterdam,1,,
mz|0,,Maarheeze,5.61662,51.299968,,0,mz,
mz|1,,Maarheeze Perron 1,5.61662,51.299968,,0,mz,1
mz|2,,Maarheeze Perron 2,5.61662,51.299968,,0,mz,2
na,na,Nieuw Amsterdam,6.84875,52.718516,Europe/Amsterdam,1,,
na|0,,Nieuw Amsterdam,6.84875,52.718516,,0,na,
na|1,,Nieuw Amsterdam Perron 1,6.84875,52.718516,,0,na,1
na|2,,Nieuw Amsterdam Perron 2,6.84875,52.718516,,0,na,2
ndb,ndb,Naarden-Bussum,5.15699,52.280958,Europe/Amsterdam,1,,
ndb|0,,Naarden-Bussum,5.15699,52.280958,,0,ndb,
ndb|1,,Naarden-Bussum Perron 1,5.15699,52.280958,,0,ndb,1
ndb|2,,Naarden-Bussum Perron 2,5.15699,52.280958,,0,ndb,2
ndb|3,,Naarden-Bussum Perron 3,5.15699,52.280958,,0,ndb,3
neuss,neuss,Neuss Hbf,6.68463,51.204862,Europe/Amsterdam,1,,
neuss|0,,Neuss Hbf,6.68463,51.204862,,0,neuss,
nh,nh,Nuth,5.89218,50.920125,Europe/Amsterdam,1,,
nh|0,,Nuth,5.89218,50.920125,,0,nh,
nh|1,,Nuth Perron 1,5.89218,50.920125,,0,nh,1
nh|2,,Nuth Perron 2,5.89218,50.920125,,0,nh,2
nkk,nkk,Nijkerk,5.49389,52.222353,Europe/Amsterdam,1,,
nkk|0,,Nijkerk,5.49389,52.222353,,0,nkk,
nkk|1,,Nijkerk Perron 1,5.49389,52.222353,,0,nkk,1
nkk|2,,Nijkerk Perron 2,5.49389,52.222353,,0,nkk,2
nm,nm,Nijmegen,5.85302,51.843258,Europe/Amsterdam,1,,
nm|0,,Nijmegen,5.85302,51.843258,,0,nm,
nm|1a,,Nijmegen Perron 1a,5.85302,51.843258,,0,nm,1a
nm|1b,,Nijmegen Perron 1b,5.85302,51.843258,,0,nm,1b
nm|3,,Nijmegen Perron 3,5.85302,51.843258,,0,nm,3
nm|35,,Nijmegen Perron 35,5.85302,51.843258,,0,nm,35
nm|3a,,Nijmegen Perron 3a,5.85302,51.843258,,0,nm,3a
nm|3b,,Nijmegen Perron 3b,5.85302,51.843258,,0,nm,3b
nm|4a,,Nijmegen Perron 4a,5.85302,51.843258,,0,nm,4a
nm|4b,,Nijmegen Perron 4b,5.85302,51.843258,,0,nm,4b
nmd,nmd,Nijmegen Dukenburg,5.79509,51.823879,Europe/Amsterdam,1,,
nmd|0,,Nijmegen Dukenburg,5.79509,51.823879,,0,nmd,
nmd|1,,Nijmegen Dukenburg Perron 1,5.79509,51.823879,,0,nmd,1
nmd|2,,Nijmegen Dukenburg Perron 2,5.79509,51.823879,,0,nmd,2
nmh,nmh,Nijmegen Heyendaal,5.86750,51.826750,Europe/Amsterdam,1,,
nmh|0,,Nijmegen Heyendaal,5.86750,51.826750,,0,nmh,
nmh|1,,Nijmegen Heyendaal Perron 1,5.86750,51.826750,,0,nmh,1
nmh|2,,Nijmegen Heyendaal Perron 2,5.86750,51.826750,,0,nmh,2
nml,nml,Nijmegen Lent,5.85947,51.863995,Europe/Amsterdam,1,,
nml|0,,Nijmegen Lent,5.85947,51.863995,,0,nml,
nml|1,,Nijmegen Lent Perron 1,5.85947,51.863995,,0,nml,1
nml|2,,Nijmegen Lent Perron 2,5.85947,51.863995,,0,nml,2
ns,ns,Nunspeet,5.78469,52.371019,Europe/Amsterdam,1,,
ns|0,,Nunspeet,5.78469,52.371019,,0,ns,
ns|1,,Nunspeet Perron 1,5.78469,52.371019,,0,ns,1
ns|2,,Nunspeet Perron 2,5.78469,52.371019,,0,ns,2
nsch,nsch,Nieuweschans,7.20024,53.185205,Europe/Amsterdam,1,,
nsch|0,,Nieuweschans,7.20024,53.185205,,0,nsch,
nsch|1,,Nieuweschans Perron 1,7.20024,53.185205,,0,nsch,1
nsch|2,,Nieuweschans Perron 2,7.20024,53.185205,,0,nsch,2
nvd,nvd,Nijverdal,6.47017,52.365653,Europe/Amsterdam,1,,
nvd|0,,Nijverdal,6.47017,52.365653,,0,nvd,
nvd|2,,Nijverdal Perron 2,6.47017,52.365653,,0,nvd,2
nvdw,nvdw,Nijverdal West,6.44997,52.350016,Europe/Amsterdam,1,,
nvdw|0,,Nijverdal West,6.44997,52.350016,,0,nvdw,
nvdw|1,,Nijverdal West Perron 1,6.44997,52.350016,,0,nvdw,1
nvp,nvp,Nieuw Vennep,4.64578,52.259173,Europe/Amsterdam,1,,
nvp|0,,Nieuw Vennep,4.64578,52.259173,,0,nvp,
nvp|1,,Nieuw Vennep Perron 1,4.64578,52.259173,,0,nvp,1
nvp|2,,Nieuw Vennep Perron 2,4.64578,52.259173,,0,nvp,2
nwk,nwk,Nieuwerkerk ad IJssel,4.61673,51.965338,Europe/Amsterdam,1,,
nwk|0,,Nieuwerkerk ad IJssel,4.61673,51.965338,,0,nwk,
nwk|1,,Nieuwerkerk ad IJssel Perron 1,4.61673,51.965338,,0,nwk,1
nwk|2,,Nieuwerkerk ad IJssel Perron 2,4.61673,51.965338,,0,nwk,2
nwl,nwl,Schiedam Nieuwland,4.38369,51.922862,Europe/Amsterdam,1,,
nwl|0,,Schiedam Nieuwland,4.38369,51.922862,,0,nwl,
nwl|1,,Schiedam Nieuwland Perron 1,4.38369,51.922862,,0,nwl,1
nwl|2,,Schiedam Nieuwland Perron 2,4.38369,51.922862,,0,nwl,2
o,o,Oss,5.52960,51.764908,Europe/Amsterdam,1,,
o|0,,Oss,5.52960,51.764908,,0,o,
o|1,,Oss Perron 1,5.52960,51.764908,,0,o,1
o|2,,Oss Perron 2,5.52960,51.764908,,0,o,2
obd,obd,Obdam,4.90917,52.678002,Europe/Amsterdam,1,,
obd|0,,Obdam,4.90917,52.678002,,0,obd,
obd|1,,Obdam Perron 1,4.90917,52.678002,,0,obd,1
obd|2,,Obdam Perron 2,4.90917,52.678002,,0,obd,2
oberh,oberh,Oberhausen Hbf,6.85198,51.475090,Europe/Amsterdam,1,,
oberh|0,,Oberhausen Hbf,6.85198,51.475090,,0,oberh,
odb,odb,Oudenbosch,4.53311,51.587769,Europe/Amsterdam,1,,
odb|0,,Oudenbosch,4.53311,51.587769,,0,odb,
odb|1,,Oudenbosch Perron 1,4.53311,51.587769,,0,odb,1
odb|2,,Oudenbosch Perron 2,4.53311,51.587769,,0,odb,2
odb|3,,Oudenbosch Perron 3,4.53311,51.587769,,0,odb,3
odz,odz,Oldenzaal,6.93371,52.306298,Europe/Amsterdam,1,,
odz|0,,Oldenzaal,6.93371,52.306298,,0,odz,
odz|1,,Oldenzaal Perron 1,6.93371,52.306298,,0,odz,1
odz|2,,Oldenzaal Perron 2,6.93371,52.306298,,0,odz,2
olv,olv,Onze Lieve Vrouwe t. Nood,4.68708,52.584782,Europe/Amsterdam,1,,
olv|0,,Onze Lieve Vrouwe t. Nood,4.68708,52.584782,,0,olv,
omn,omn,Ommen,6.41773,52.509930,Europe/Amsterdam,1,,
omn|0,,Ommen,6.41773,52.509930,,0,omn,
omn|1,,Ommen Perron 1,6.41773,52.509930,,0,omn,1
omn|2,,Ommen Perron 2,6.41773,52.509930,,0,omn,2
op,op,Opheusden,5.63711,51.926159,Europe/Amsterdam,1,,
op|0,,Opheusden,5.63711,51.926159,,0,op,
op|1,,Opheusden Perron 1,5.63711,51.926159,,0,op,1
op|2,,Opheusden Perron 2,5.63711,51.926159,,0,op,2
osnh,osnh,Osnabrueck Hbf,8.06161,52.272667,Europe/Amsterdam,1,,
osnh|0,,Osnabrueck Hbf,8.06161,52.272667,,0,osnh,
ost,ost,Olst,6.11333,52.335754,Europe/Amsterdam,1,,
ost|0,,Olst,6.11333,52.335754,,0,ost,
ost|2,,Olst Perron 2,6.11333,52.335754,,0,ost,2
ost|3,,Olst Perron 3,6.11333,52.335754,,0,ost,3
ot,ot,Oisterwijk,5.19358,51.582009,Europe/Amsterdam,1,,
ot|0,,Oisterwijk,5.19358,51.582009,,0,ot,
ot|1,,Oisterwijk Perron 1,5.19358,51.582009,,0,ot,1
ot|2,,Oisterwijk Perron 2,5.19358,51.582009,,0,ot,2
ot|3,,Oisterwijk Perron 3,5.19358,51.582009,,0,ot,3
otb,otb,Oosterbeek,5.84119,51.994488,Europe/Amsterdam,1,,
otb|0,,Oosterbeek,5.84119,51.994488,,0,otb,
otb|1,,Oosterbeek Perron 1,5.84119,51.994488,,0,otb,1
otb|2,,Oosterbeek Perron 2,5.84119,51.994488,,0,otb,2
ovn,ovn,Overveen,4.60758,52.390961,Europe/Amsterdam,1,,
ovn|0,,Overveen,4.60758,52.390961,,0,ovn,
ovn|1,,Overveen Perron 1,4.60758,52.390961,,0,ovn,1
ovn|2,,Overveen Perron 2,4.60758,52.390961,,0,ovn,2
ow,ow,Oss West,5.50684,51.758282,Europe/Amsterdam,1,,
ow|0,,Oss West,5.50684,51.758282,,0,ow,
ow|1,,Oss West Perron 1,5.50684,51.758282,,0,ow,1
ow|2,,Oss West Perron 2,5.50684,51.758282,,0,ow,2
paris,paris,Paris-Nord,2.35503,48.880506,Europe/Amsterdam,1,,
paris|0,,Paris-Nord,2.35503,48.880506,,0,paris,
pmo,pmo,Purmerend Overwhere,4.96768,52.511420,Europe/Amsterdam,1,,
pmo|0,,Purmerend Overwhere,4.96768,52.511420,,0,pmo,
pmo|1,,Purmerend Overwhere Perron 1,4.96768,52.511420,,0,pmo,1
pmo|2,,Purmerend Overwhere Perron 2,4.96768,52.511420,,0,pmo,2
pmr,pmr,Purmerend,4.95421,52.503822,Europe/Amsterdam,1,,
pmr|0,,Purmerend,4.95421,52.503822,,0,pmr,
pmr|1,,Purmerend Perron 1,4.95421,52.503822,,0,pmr,1
pmr|2,,Purmerend Perron 2,4.95421,52.503822,,0,pmr,2
pmw,pmw,Purmerend Weidevenne,4.93807,52.497291,Europe/Amsterdam,1,,
pmw|0,,Purmerend Weidevenne,4.93807,52.497291,,0,pmw,
pmw|1,,Purmerend Weidevenne Perron 1,4.93807,52.497291,,0,pmw,1
pmw|2,,Purmerend Weidevenne Perron 2,4.93807,52.497291,,0,pmw,2
pt,pt,Putten,5.57588,52.265572,Europe/Amsterdam,1,,
pt|0,,Putten,5.57588,52.265572,,0,pt,
pt|1,,Putten Perron 1,5.57588,52.265572,,0,pt,1
pt|2,,Putten Perron 2,5.57588,52.265572,,0,pt,2
rai,rai,Amsterdam RAI,4.88951,52.337297,Europe/Amsterdam,1,,
rai|0,,Amsterdam RAI,4.88951,52.337297,,0,rai,
rai|1,,Amsterdam RAI Perron 1,4.88951,52.337297,,0,rai,1
rai|2,,Amsterdam RAI Perron 2,4.88951,52.337297,,0,rai,2
rat,rat,Raalte,6.27833,52.390981,Europe/Amsterdam,1,,
rat|0,,Raalte,6.27833,52.390981,,0,rat,
rat|1,,Raalte Perron 1,6.27833,52.390981,,0,rat,1
rat|2,,Raalte Perron 2,6.27833,52.390981,,0,rat,2
rb,rb,Rilland-Bath,4.16037,51.422192,Europe/Amsterdam,1,,
rb|0,,Rilland-Bath,4.16037,51.422192,,0,rb,
rb|1,,Rilland-Bath Perron 1,4.16037,51.422192,,0,rb,1
rb|2,,Rilland-Bath Perron 2,4.16037,51.422192,,0,rb,2
rbb,rbb,Baden-Baden,8.19049,48.790066,Europe/Amsterdam,1,,
rbb|0,,Baden-Baden,8.19049,48.790066,,0,rbb,
rd,rd,Roodeschool,6.76061,53.419211,Europe/Amsterdam,1,,
rd|0,,Roodeschool,6.76061,53.419211,,0,rd,
rd|1,,Roodeschool Perron 1,6.76061,53.419211,,0,rd,1
rf,rf,Freiburg (Breisgau) Hbf,7.84131,47.997921,Europe/Amsterdam,1,,
rf|0,,Freiburg (Breisgau) Hbf,7.84131,47.997921,,0,rf,
rh,rh,Rheden,6.03129,52.010230,Europe/Amsterdam,1,,
rh|0,,Rheden,6.03129,52.010230,,0,rh,
rh|1,,Rheden Perron 1,6.03129,52.010230,,0,rh,1
rh|2,,Rheden Perron 2,6.03129,52.010230,,0,rh,2
rheine,rheine,Rheine,7.43520,52.276107,Europe/Amsterdam,1,,
rheine|0,,Rheine,7.43520,52.276107,,0,rheine,
rhn,rhn,Rhenen,5.57793,51.957549,Europe/Amsterdam,1,,
rhn|0,,Rhenen,5.57793,51.957549,,0,rhn,
rhn|1,,Rhenen Perron 1,5.57793,51.957549,,0,rhn,1
rl,rl,Ruurlo,6.44926,52.081087,Europe/Amsterdam,1,,
rl|0,,Ruurlo,6.44926,52.081087,,0,rl,
rl|1,,Ruurlo Perron 1,6.44926,52.081087,,0,rl,1
rl|2,,Ruurlo Perron 2,6.44926,52.081087,,0,rl,2
rlb,rlb,Rotterdam Lombardijen,4.53076,51.879981,Europe/Amsterdam,1,,
rlb|0,,Rotterdam Lombardijen,4.53076,51.879981,,0,rlb,
rlb|1,,Rotterdam Lombardijen Perron 1,4.53076,51.879981,,0,rlb,1
rlb|2,,Rotterdam Lombardijen Perron 2,4.53076,51.879981,,0,rlb,2
rlb|3,,Rotterdam Lombardijen Perron 3,4.53076,51.879981,,0,rlb,3
rlb|4,,Rotterdam Lombardijen Perron 4,4.53076,51.879981,,0,rlb,4
rm,rm,Roermond,5.99446,51.193169,Europe/Amsterdam,1,,
rm|0,,Roermond,5.99446,51.193169,,0,rm,
rm|1,,Roermond Perron 1,5.99446,51.193169,,0,rm,1
rm|2,,Roermond Perron 2,5.99446,51.193169,,0,rm,2
rm|3a,,Roermond Perron 3a,5.99446,51.193169,,0,rm,3a
rm|3b,,Roermond Perron 3b,5.99446,51.193169,,0,rm,3b
ro,ro,Offenburg,7.94667,48.476438,Europe/Amsterdam,1,,
ro|0,,Offenburg,7.94667,48.476438,,0,ro,
rs,rs,Rosmalen,5.36911,51.715198,Europe/Amsterdam,1,,
rs|0,,Rosmalen,5.36911,51.715198,,0,rs,
rs|1,,Rosmalen Perron 1,5.36911,51.715198,,0,rs,1
rs|2,,Rosmalen Perron 2,5.36911,51.715198,,0,rs,2
rsd,rsd,Roosendaal,4.45933,51.540464,Europe/Amsterdam,1,,
rsd|0,,Roosendaal,4.45933,51.540464,,0,rsd,
rsd|1,,Roosendaal Perron 1,4.45933,51.540464,,0,rsd,1
rsd|1a,,Roosendaal Perron 1a,4.45933,51.540464,,0,rsd,1a
rsd|1b,,Roosendaal Perron 1b,4.45933,51.540464,,0,rsd,1b
rsd|3a,,Roosendaal Perron 3a,4.45933,51.540464,,0,rsd,3a
rsd|3b,,Roosendaal Perron 3b,4.45933,51.540464,,0,rsd,3b
rsd|4a,,Roosendaal Perron 4a,4.45933,51.540464,,0,rsd,4a
rsd|4b,,Roosendaal Perron 4b,4.45933,51.540464,,0,rsd,4b
rsn,rsn,Rijssen,6.51931,52.311892,Europe/Amsterdam,1,,
rsn|0,,Rijssen,6.51931,52.311892,,0,rsn,
rsn|2,,Rijssen Perron 2,6.51931,52.311892,,0,rsn,2
rsn|3,,Rijssen Perron 3,6.51931,52.311892,,0,rsn,3
rsw,rsw,Rijswijk,4.31971,52.039603,Europe/Amsterdam,1,,
rsw|0,,Rijswijk,4.31971,52.039603,,0,rsw,
rsw|1,,Rijswijk Perron 1,4.31971,52.039603,,0,rsw,1
rsw|2,,Rijswijk Perron 2,4.31971,52.039603,,0,rsw,2
rsw|3,,Rijswijk Perron 3,4.31971,52.039603,,0,rsw,3
rsw|4,,Rijswijk Perron 4,4.31971,52.039603,,0,rsw,4
rta,rta,Rotterdam Alexander,4.55195,51.951413,Europe/Amsterdam,1,,
rta|0,,Rotterdam Alexander,4.55195,51.951413,,0,rta,
rta|1,,Rotterdam Alexander Perron 1,4.55195,51.951413,,0,rta,1
rta|2,,Rotterdam Alexander Perron 2,4.55195,51.951413,,0,rta,2
rtb,rtb,Rotterdam Blaak,4.48915,51.919850,Europe/Amsterdam,1,,
rtb|0,,Rotterdam Blaak,4.48915,51.919850,,0,rtb,
rtb|1,,Rotterdam Blaak Perron 1,4.48915,51.919850,,0,rtb,1
rtb|2,,Rotterdam Blaak Perron 2,4.48915,51.919850,,0,rtb,2
rtb|3,,Rotterdam Blaak Perron 3,4.48915,51.919850,,0,rtb,3
rtb|4,,Rotterdam Blaak Perron 4,4.48915,51.919850,,0,rtb,4
rtd,rtd,Rotterdam Centraal,4.46942,51.925090,Europe/Amsterdam,1,,
rtd|0,,Rotterdam Centraal,4.46942,51.925090,,0,rtd,
rtd|1,,Rotterdam Centraal Perron 1,4.46942,51.925090,,0,rtd,1
rtd|10,,Rotterdam Centraal Perron 10,4.46942,51.925090,,0,rtd,10
rtd|10b,,Rotterdam Centraal Perron 10b,4.46942,51.925090,,0,rtd,10b
rtd|11,,Rotterdam Centraal Perron 11,4.46942,51.925090,,0,rtd,11
rtd|12,,Rotterdam Centraal Perron 12,4.46942,51.925090,,0,rtd,12
rtd|13,,Rotterdam Centraal Perron 13,4.46942,51.925090,,0,rtd,13
rtd|14,,Rotterdam Centraal Perron 14,4.46942,51.925090,,0,rtd,14
rtd|14a,,Rotterdam Centraal Perron 14a,4.46942,51.925090,,0,rtd,14a
rtd|14b,,Rotterdam Centraal Perron 14b,4.46942,51.925090,,0,rtd,14b
rtd|15,,Rotterdam Centraal Perron 15,4.46942,51.925090,,0,rtd,15
rtd|16,,Rotterdam Centraal Perron 16,4.46942,51.925090,,0,rtd,16
rtd|1a,,Rotterdam Centraal Perron 1a,4.46942,51.925090,,0,rtd,1a
rtd|1b,,Rotterdam Centraal Perron 1b,4.46942,51.925090,,0,rtd,1b
rtd|3,,Rotterdam Centraal Perron 3,4.46942,51.925090,,0,rtd,3
rtd|4,,Rotterdam Centraal Perron 4,4.46942,51.925090,,0,rtd,4
rtd|6,,Rotterdam Centraal Perron 6,4.46942,51.925090,,0,rtd,6
rtd|7,,Rotterdam Centraal Perron 7,4.46942,51.925090,,0,rtd,7
rtd|8,,Rotterdam Centraal Perron 8,4.46942,51.925090,,0,rtd,8
rtd|9,,Rotterdam Centraal Perron 9,4.46942,51.925090,,0,rtd,9
rtn,rtn,Rotterdam Noord,4.48115,51.942080,Europe/Amsterdam,1,,
rtn|0,,Rotterdam Noord,4.48115,51.942080,,0,rtn,
rtn|1,,Rotterdam Noord Perron 1,4.48115,51.942080,,0,rtn,1
rtn|2,,Rotterdam Noord Perron 2,4.48115,51.942080,,0,rtn,2
rtst,rtst,Rotterdam Stadion,4.52006,51.892756,Europe/Amsterdam,1,,
rtst|0,,Rotterdam Stadion,4.52006,51.892756,,0,rtst,
rtz,rtz,Rotterdam Zuid,4.51158,51.902850,Europe/Amsterdam,1,,
rtz|0,,Rotterdam Zuid,4.51158,51.902850,,0,rtz,
rtz|1,,Rotterdam Zuid Perron 1,4.51158,51.902850,,0,rtz,1
rtz|2,,Rotterdam Zuid Perron 2,4.51158,51.902850,,0,rtz,2
rtz|3,,Rotterdam Zuid Perron 3,4.51158,51.902850,,0,rtz,3
rtz|4,,Rotterdam Zuid Perron 4,4.51158,51.902850,,0,rtz,4
rv,rv,Reuver,6.07922,51.283214,Europe/Amsterdam,1,,
rv|0,,Reuver,6.07922,51.283214,,0,rv,
rv|1,,Reuver Perron 1,6.07922,51.283214,,0,rv,1
rv|2,,Reuver Perron 2,6.07922,51.283214,,0,rv,2
rvs,rvs,Ravenstein,5.63682,51.794481,Europe/Amsterdam,1,,
rvs|0,,Ravenstein,5.63682,51.794481,,0,rvs,
rvs|1,,Ravenstein Perron 1,5.63682,51.794481,,0,rvs,1
rvs|2,,Ravenstein Perron 2,5.63682,51.794481,,0,rvs,2
sbk,sbk,Spaubeek,5.84961,50.943314,Europe/Amsterdam,1,,
sbk|0,,Spaubeek,5.84961,50.943314,,0,sbk,
sbk|1,,Spaubeek Perron 1,5.84961,50.943314,,0,sbk,1
sbk|2,,Spaubeek Perron 2,5.84961,50.943314,,0,sbk,2
sd,sd,Soestdijk,5.29962,52.183901,Europe/Amsterdam,1,,
sd|0,,Soestdijk,5.29962,52.183901,,0,sd,
sd|1,,Soestdijk Perron 1,5.29962,52.183901,,0,sd,1
sda,sda,Scheemda,6.97777,53.165534,Europe/Amsterdam,1,,
sda|0,,Scheemda,6.97777,53.165534,,0,sda,
sda|1,,Scheemda Perron 1,6.97777,53.165534,,0,sda,1
sda|2,,Scheemda Perron 2,6.97777,53.165534,,0,sda,2
sdm,sdm,Schiedam Centrum,4.40931,51.921639,Europe/Amsterdam,1,,
sdm|0,,Schiedam Centrum,4.40931,51.921639,,0,sdm,
sdm|1,,Schiedam Centrum Perron 1,4.40931,51.921639,,0,sdm,1
sdm|2,,Schiedam Centrum Perron 2,4.40931,51.921639,,0,sdm,2
sdm|3,,Schiedam Centrum Perron 3,4.40931,51.921639,,0,sdm,3
sdm|5,,Schiedam Centrum Perron 5,4.40931,51.921639,,0,sdm,5
sdt,sdt,Sliedrecht,4.77791,51.829748,Europe/Amsterdam,1,,
sdt|0,,Sliedrecht,4.77791,51.829748,,0,sdt,
sdt|1,,Sliedrecht Perron 1,4.77791,51.829748,,0,sdt,1
sdt|2,,Sliedrecht Perron 2,4.77791,51.829748,,0,sdt,2
sdtb,sdtb,Sliedrecht Baanhoek,4.74926,51.834720,Europe/Amsterdam,1,,
sdtb|0,,Sliedrecht Baanhoek,4.74926,51.834720,,0,sdtb,
sdtb|1,,Sliedrecht Baanhoek Perron 1,4.74926,51.834720,,0,sdtb,1
sgl,sgl,Houthem-St Gerlach,5.79649,50.873581,Europe/Amsterdam,1,,
sgl|0,,Houthem-St Gerlach,5.79649,50.873581,,0,sgl,
sgl|1,,Houthem-St Gerlach Perron 1,5.79649,50.873581,,0,sgl,1
sgl|2,,Houthem-St Gerlach Perron 2,5.79649,50.873581,,0,sgl,2
sgn,sgn,Schagen,4.80513,52.785293,Europe/Amsterdam,1,,
sgn|0,,Schagen,4.80513,52.785293,,0,sgn,
sgn|1,,Schagen Perron 1,4.80513,52.785293,,0,sgn,1
sgn|2,,Schagen Perron 2,4.80513,52.785293,,0,sgn,2
sgn|3,,Schagen Perron 3,4.80513,52.785293,,0,sgn,3
shl,shl,Schiphol,4.76227,52.308292,Europe/Amsterdam,1,,
shl|0,,Schiphol,4.76227,52.308292,,0,shl,
shl|1-2,,Schiphol Perron 1-2,4.76227,52.308292,,0,shl,1-2
shl|3,,Schiphol Perron 3,4.76227,52.308292,,0,shl,3
shl|4,,Schiphol Perron 4,4.76227,52.308292,,0,shl,4
shl|5-6,,Schiphol Perron 5-6,4.76227,52.308292,,0,shl,5-6
sk,sk,Sneek,5.65239,53.032467,Europe/Amsterdam,1,,
sk|0,,Sneek,5.65239,53.032467,,0,sk,
sk|1,,Sneek Perron 1,5.65239,53.032467,,0,sk,1
sk|2,,Sneek Perron 2,5.65239,53.032467,,0,sk,2
sknd,sknd,Sneek Noord,5.66318,53.040530,Europe/Amsterdam,1,,
sknd|0,,Sneek Noord,5.66318,53.040530,,0,sknd,
sknd|1,,Sneek Noord Perron 1,5.66318,53.040530,,0,sknd,1
sknd|2,,Sneek Noord Perron 2,5.66318,53.040530,,0,sknd,2
sm,sm,Swalmen,6.03182,51.235036,Europe/Amsterdam,1,,
sm|0,,Swalmen,6.03182,51.235036,,0,sm,
sm|1,,Swalmen Perron 1,6.03182,51.235036,,0,sm,1
sm|2,,Swalmen Perron 2,6.03182,51.235036,,0,sm,2
sn,sn,Schinnen,5.87588,50.938802,Europe/Amsterdam,1,,
sn|0,,Schinnen,5.87588,50.938802,,0,sn,
sn|1,,Schinnen Perron 1,5.87588,50.938802,,0,sn,1
sn|2,,Schinnen Perron 2,5.87588,50.938802,,0,sn,2
sog,sog,Schin op Geul,5.87188,50.856121,Europe/Amsterdam,1,,
sog|0,,Schin op Geul,5.87188,50.856121,,0,sog,
sog|1,,Schin op Geul Perron 1,5.87188,50.856121,,0,sog,1
sog|2,,Schin op Geul Perron 2,5.87188,50.856121,,0,sog,2
spm,spm,Sappemeer Oost,6.79556,53.158916,Europe/Amsterdam,1,,
spm|0,,Sappemeer Oost,6.79556,53.158916,,0,spm,
spm|1,,Sappemeer Oost Perron 1,6.79556,53.158916,,0,spm,1
spm|2,,Sappemeer Oost Perron 2,6.79556,53.158916,,0,spm,2
sptn,sptn,Santpoort Noord,4.63271,52.433637,Europe/Amsterdam,1,,
sptn|0,,Santpoort Noord,4.63271,52.433637,,0,sptn,
sptn|1,,Santpoort Noord Perron 1,4.63271,52.433637,,0,sptn,1
sptn|3,,Santpoort Noord Perron 3,4.63271,52.433637,,0,sptn,3
sptz,sptz,Santpoort Zuid,4.63119,52.419426,Europe/Amsterdam,1,,
sptz|0,,Santpoort Zuid,4.63119,52.419426,,0,sptz,
sptz|1,,Santpoort Zuid Perron 1,4.63119,52.419426,,0,sptz,1
sptz|2,,Santpoort Zuid Perron 2,4.63119,52.419426,,0,sptz,2
srn,srn,Susteren,5.86262,51.060747,Europe/Amsterdam,1,,
srn|0,,Susteren,5.86262,51.060747,,0,srn,
srn|1,,Susteren Perron 1,5.86262,51.060747,,0,srn,1
srn|2,,Susteren Perron 2,5.86262,51.060747,,0,srn,2
ssh,ssh,Sassenheim,4.52881,52.217845,Europe/Amsterdam,1,,
ssh|0,,Sassenheim,4.52881,52.217845,,0,ssh,
ssh|1,,Sassenheim Perron 1,4.52881,52.217845,,0,ssh,1
ssh|2,,Sassenheim Perron 2,4.52881,52.217845,,0,ssh,2
st,st,Soest,5.31031,52.172854,Europe/Amsterdam,1,,
st|0,,Soest,5.31031,52.172854,,0,st,
st|1,,Soest Perron 1,5.31031,52.172854,,0,st,1
st|2,,Soest Perron 2,5.31031,52.172854,,0,st,2
std,std,Sittard,5.85946,51.002422,Europe/Amsterdam,1,,
std|0,,Sittard,5.85946,51.002422,,0,std,
std|1,,Sittard Perron 1,5.85946,51.002422,,0,std,1
std|1a,,Sittard Perron 1a,5.85946,51.002422,,0,std,1a
std|2,,Sittard Perron 2,5.85946,51.002422,,0,std,2
std|20,,Sittard Perron 20,5.85946,51.002422,,0,std,20
std|2a,,Sittard Perron 2a,5.85946,51.002422,,0,std,2a
std|2b,,Sittard Perron 2b,5.85946,51.002422,,0,std,2b
std|3,,Sittard Perron 3,5.85946,51.002422,,0,std,3
std|3a,,Sittard Perron 3a,5.85946,51.002422,,0,std,3a
std|3b,,Sittard Perron 3b,5.85946,51.002422,,0,std,3b
stm,stm,Stedum,6.68755,53.326207,Europe/Amsterdam,1,,
stm|0,,Stedum,6.68755,53.326207,,0,stm,
stm|1,,Stedum Perron 1,6.68755,53.326207,,0,stm,1
stm|2,,Stedum Perron 2,6.68755,53.326207,,0,stm,2
stola,stola,Stolberg Altstadt,6.23052,50.765158,Europe/Amsterdam,1,,
stola|0,,Stolberg Altstadt,6.23052,50.765158,,0,stola,
stolb,stolb,Stolberg Hbf,6.21886,50.794997,Europe/Amsterdam,1,,
stolb|0,,Stolberg Hbf,6.21886,50.794997,,0,stolb,
stv,stv,Stavoren,5.36002,52.886551,Europe/Amsterdam,1,,
stv|0,,Stavoren,5.36002,52.886551,,0,stv,
stv|1,,Stavoren Perron 1,5.36002,52.886551,,0,stv,1
stz,stz,Soest Zuid,5.30345,52.165389,Europe/Amsterdam,1,,
stz|0,,Soest Zuid,5.30345,52.165389,,0,stz,
stz|1,,Soest Zuid Perron 1,5.30345,52.165389,,0,stz,1
swd,swd,Sauwerd,6.54029,53.291676,Europe/Amsterdam,1,,
swd|0,,Sauwerd,6.54029,53.291676,,0,swd,
swd|1,,Sauwerd Perron 1,6.54029,53.291676,,0,swd,1
swd|2,,Sauwerd Perron 2,6.54029,53.291676,,0,swd,2
swk,swk,Steenwijk,6.11672,52.790950,Europe/Amsterdam,1,,
swk|0,,Steenwijk,6.11672,52.790950,,0,swk,
swk|1,,Steenwijk Perron 1,6.11672,52.790950,,0,swk,1
swk|2,,Steenwijk Perron 2,6.11672,52.790950,,0,swk,2
tb,tb,Tilburg,5.08393,51.560383,Europe/Amsterdam,1,,
tb|0,,Tilburg,5.08393,51.560383,,0,tb,
tb|1,,Tilburg Perron 1,5.08393,51.560383,,0,tb,1
tb|2,,Tilburg Perron 2,5.08393,51.560383,,0,tb,2
tb|3,,Tilburg Perron 3,5.08393,51.560383,,0,tb,3
tbg,tbg,Terborg,6.36424,51.922453,Europe/Amsterdam,1,,
tbg|0,,Terborg,6.36424,51.922453,,0,tbg,
tbg|1,,Terborg Perron 1,6.36424,51.922453,,0,tbg,1
tbg|2,,Terborg Perron 2,6.36424,51.922453,,0,tbg,2
tbr,tbr,Tilburg Reeshof,4.99311,51.573865,Europe/Amsterdam,1,,
tbr|0,,Tilburg Reeshof,4.99311,51.573865,,0,tbr,
tbr|1,,Tilburg Reeshof Perron 1,4.99311,51.573865,,0,tbr,1
tbr|2,,Tilburg Reeshof Perron 2,4.99311,51.573865,,0,tbr,2
tbu,tbu,Tilburg Universiteit,5.05116,51.565057,Europe/Amsterdam,1,,
tbu|0,,Tilburg Universiteit,5.05116,51.565057,,0,tbu,
tbu|1,,Tilburg Universiteit Perron 1,5.05116,51.565057,,0,tbu,1
tbu|2,,Tilburg Universiteit Perron 2,5.05116,51.565057,,0,tbu,2
tbu|3,,Tilburg Universiteit Perron 3,5.05116,51.565057,,0,tbu,3
tg,tg,Tegelen,6.14336,51.339267,Europe/Amsterdam,1,,
tg|0,,Tegelen,6.14336,51.339267,,0,tg,
tg|1,,Tegelen Perron 1,6.14336,51.339267,,0,tg,1
tg|2,,Tegelen Perron 2,6.14336,51.339267,,0,tg,2
tgo,tgo,Goeppingen,9.65165,48.700162,Europe/Amsterdam,1,,
tgo|0,,Goeppingen,9.65165,48.700162,,0,tgo,
tl,tl,Tiel,5.42308,51.889568,Europe/Amsterdam,1,,
tl|0,,Tiel,5.42308,51.889568,,0,tl,
tl|2,,Tiel Perron 2,5.42308,51.889568,,0,tl,2
tl|3,,Tiel Perron 3,5.42308,51.889568,,0,tl,3
tp,tp,Plochingen,9.41059,48.713299,Europe/Amsterdam,1,,
tp|0,,Plochingen,9.41059,48.713299,,0,tp,
tpsw,tpsw,Tiel Passewaaij,5.39258,51.874114,Europe/Amsterdam,1,,
tpsw|0,,Tiel Passewaaij,5.39258,51.874114,,0,tpsw,
tpsw|1,,Tiel Passewaaij Perron 1,5.39258,51.874114,,0,tpsw,1
ts,ts,Stuttgart Hbf,9.18163,48.784052,Europe/Amsterdam,1,,
ts|0,,Stuttgart Hbf,9.18163,48.784052,,0,ts,
tu,tu,Ulm Hbf,9.98214,48.399050,Europe/Amsterdam,1,,
tu|0,,Ulm Hbf,9.98214,48.399050,,0,tu,
twl,twl,Twello,6.10194,52.238753,Europe/Amsterdam,1,,
twl|0,,Twello,6.10194,52.238753,,0,twl,
twl|1,,Twello Perron 1,6.10194,52.238753,,0,twl,1
twl|2,,Twello Perron 2,6.10194,52.238753,,0,twl,2
uhm,uhm,Uithuizermeeden,6.72029,53.414182,Europe/Amsterdam,1,,
uhm|0,,Uithuizermeeden,6.72029,53.414182,,0,uhm,
uhm|1,,Uithuizermeeden Perron 1,6.72029,53.414182,,0,uhm,1
uhm|2,,Uithuizermeeden Perron 2,6.72029,53.414182,,0,uhm,2
uhz,uhz,Uithuizen,6.67488,53.409555,Europe/Amsterdam,1,,
uhz|0,,Uithuizen,6.67488,53.409555,,0,uhz,
uhz|1,,Uithuizen Perron 1,6.67488,53.409555,,0,uhz,1
ust,ust,Usquert,6.60937,53.401072,Europe/Amsterdam,1,,
ust|0,,Usquert,6.60937,53.401072,,0,ust,
ust|1,,Usquert Perron 1,6.60937,53.401072,,0,ust,1
ust|2,,Usquert Perron 2,6.60937,53.401072,,0,ust,2
ut,ut,Utrecht Centraal,5.11099,52.089776,Europe/Amsterdam,1,,
ut|0,,Utrecht Centraal,5.11099,52.089776,,0,ut,
ut|1,,Utrecht Centraal Perron 1,5.11099,52.089776,,0,ut,1
ut|11,,Utrecht Centraal Perron 11,5.11099,52.089776,,0,ut,11
ut|11a,,Utrecht Centraal Perron 11a,5.11099,52.089776,,0,ut,11a
ut|11b,,Utrecht Centraal Perron 11b,5.11099,52.089776,,0,ut,11b
ut|12,,Utrecht Centraal Perron 12,5.11099,52.089776,,0,ut,12
ut|12a,,Utrecht Centraal Perron 12a,5.11099,52.089776,,0,ut,12a
ut|12b,,Utrecht Centraal Perron 12b,5.11099,52.089776,,0,ut,12b
ut|14,,Utrecht Centraal Perron 14,5.11099,52.089776,,0,ut,14
ut|14a,,Utrecht Centraal Perron 14a,5.11099,52.089776,,0,ut,14a
ut|14b,,Utrecht Centraal Perron 14b,5.11099,52.089776,,0,ut,14b
ut|15,,Utrecht Centraal Perron 15,5.11099,52.089776,,0,ut,15
ut|18a,,Utrecht Centraal Perron 18a,5.11099,52.089776,,0,ut,18a
ut|18b,,Utrecht Centraal Perron 18b,5.11099,52.089776,,0,ut,18b
ut|19a,,Utrecht Centraal Perron 19a,5.11099,52.089776,,0,ut,19a
ut|19b,,Utrecht Centraal Perron 19b,5.11099,52.089776,,0,ut,19b
ut|2,,Utrecht Centraal Perron 2,5.11099,52.089776,,0,ut,2
ut|3,,Utrecht Centraal Perron 3,5.11099,52.089776,,0,ut,3
ut|4,,Utrecht Centraal Perron 4,5.11099,52.089776,,0,ut,4
ut|4a,,Utrecht Centraal Perron 4a,5.11099,52.089776,,0,ut,4a
ut|4b,,Utrecht Centraal Perron 4b,5.11099,52.089776,,0,ut,4b
ut|5,,Utrecht Centraal Perron 5,5.11099,52.089776,,0,ut,5
ut|5a,,Utrecht Centraal Perron 5a,5.11099,52.089776,,0,ut,5a
ut|5b,,Utrecht Centraal Perron 5b,5.11099,52.089776,,0,ut,5b
ut|7,,Utrecht Centraal Perron 7,5.11099,52.089776,,0,ut,7
ut|7a,,Utrecht Centraal Perron 7a,5.11099,52.089776,,0,ut,7a
ut|7b,,Utrecht Centraal Perron 7b,5.11099,52.089776,,0,ut,7b
ut|8,,Utrecht Centraal Perron 8,5.11099,52.089776,,0,ut,8
ut|8a,,Utrecht Centraal Perron 8a,5.11099,52.089776,,0,ut,8a
ut|8b,,Utrecht Centraal Perron 8b,5.11099,52.089776,,0,ut,8b
ut|9,,Utrecht Centraal Perron 9,5.11099,52.089776,,0,ut,9
ut|9a,,Utrecht Centraal Perron 9a,5.11099,52.089776,,0,ut,9a
ut|9b,,Utrecht Centraal Perron 9b,5.11099,52.089776,,0,ut,9b
utg,utg,Uitgeest,4.70237,52.522049,Europe/Amsterdam,1,,
utg|0,,Uitgeest,4.70237,52.522049,,0,utg,
utg|1a,,Uitgeest Perron 1a,4.70237,52.522049,,0,utg,1a
utg|1b,,Uitgeest Perron 1b,4.70237,52.522049,,0,utg,1b
utg|3,,Uitgeest Perron 3,4.70237,52.522049,,0,utg,3
utg|4,,Uitgeest Perron 4,4.70237,52.522049,,0,utg,4
utg|4a,,Uitgeest Perron 4a,4.70237,52.522049,,0,utg,4a
utg|4b,,Uitgeest Perron 4b,4.70237,52.522049,,0,utg,4b
utl,utl,Utrecht Lunetten,5.14351,52.065939,Europe/Amsterdam,1,,
utl|0,,Utrecht Lunetten,5.14351,52.065939,,0,utl,
utl|1,,Utrecht Lunetten Perron 1,5.14351,52.065939,,0,utl,1
utl|2,,Utrecht Lunetten Perron 2,5.14351,52.065939,,0,utl,2
utm,utm,Utrecht Maliebaan,5.13114,52.087934,Europe/Amsterdam,1,,
utm|0,,Utrecht Maliebaan,5.13114,52.087934,,0,utm,
utm|2,,Utrecht Maliebaan Perron 2,5.13114,52.087934,,0,utm,2
uto,uto,Utrecht Overvecht,5.12517,52.110391,Europe/Amsterdam,1,,
uto|0,,Utrecht Overvecht,5.12517,52.110391,,0,uto,
uto|1,,Utrecht Overvecht Perron 1,5.12517,52.110391,,0,uto,1
uto|2,,Utrecht Overvecht Perron 2,5.12517,52.110391,,0,uto,2
uto|3,,Utrecht Overvecht Perron 3,5.12517,52.110391,,0,uto,3
utt,utt,Utrecht Terwijde,5.04043,52.100645,Europe/Amsterdam,1,,
utt|0,,Utrecht Terwijde,5.04043,52.100645,,0,utt,
utt|1,,Utrecht Terwijde Perron 1,5.04043,52.100645,,0,utt,1
utt|4,,Utrecht Terwijde Perron 4,5.04043,52.100645,,0,utt,4
utzl,utzl,Utrecht Zuilen,5.08974,52.103206,Europe/Amsterdam,1,,
utzl|0,,Utrecht Zuilen,5.08974,52.103206,,0,utzl,
utzl|2,,Utrecht Zuilen Perron 2,5.08974,52.103206,,0,utzl,2
utzl|3,,Utrecht Zuilen Perron 3,5.08974,52.103206,,0,utzl,3
valtgv,valtgv,Valence TGV,4.94424,44.965716,Europe/Amsterdam,1,,
valtgv|0,,Valence TGV,4.94424,44.965716,,0,valtgv,
vb,vb,Voorburg,4.35948,52.066293,Europe/Amsterdam,1,,
vb|0,,Voorburg,4.35948,52.066293,,0,vb,
vb|1,,Voorburg Perron 1,4.35948,52.066293,,0,vb,1
vb|2,,Voorburg Perron 2,4.35948,52.066293,,0,vb,2
vd,vd,Vorden,6.31704,52.107193,Europe/Amsterdam,1,,
vd|0,,Vorden,6.31704,52.107193,,0,vd,
vd|1,,Vorden Perron 1,6.31704,52.107193,,0,vd,1
vd|2,,Vorden Perron 2,6.31704,52.107193,,0,vd,2
vdg,vdg,Vlaardingen Centrum,4.34460,51.903555,Europe/Amsterdam,1,,
vdg|0,,Vlaardingen Centrum,4.34460,51.903555,,0,vdg,
vdg|1,,Vlaardingen Centrum Perron 1,4.34460,51.903555,,0,vdg,1
vdg|2,,Vlaardingen Centrum Perron 2,4.34460,51.903555,,0,vdg,2
vdl,vdl,Voerendaal,5.92961,50.886696,Europe/Amsterdam,1,,
vdl|0,,Voerendaal,5.92961,50.886696,,0,vdl,
vdl|1,,Voerendaal Perron 1,5.92961,50.886696,,0,vdl,1
vdl|2,,Voerendaal Perron 2,5.92961,50.886696,,0,vdl,2
vdm,vdm,Veendam,6.88700,53.105142,Europe/Amsterdam,1,,
vdm|0,,Veendam,6.88700,53.105142,,0,vdm,
vdm|5,,Veendam Perron 5,6.88700,53.105142,,0,vdm,5
vdo,vdo,Vlaardingen Oost,4.36145,51.910355,Europe/Amsterdam,1,,
vdo|0,,Vlaardingen Oost,4.36145,51.910355,,0,vdo,
vdo|1,,Vlaardingen Oost Perron 1,4.36145,51.910355,,0,vdo,1
vdo|2,,Vlaardingen Oost Perron 2,4.36145,51.910355,,0,vdo,2
vdw,vdw,Vlaardingen West,4.31480,51.904096,Europe/Amsterdam,1,,
vdw|0,,Vlaardingen West,4.31480,51.904096,,0,vdw,
vdw|1,,Vlaardingen West Perron 1,4.31480,51.904096,,0,vdw,1
vdw|2,,Vlaardingen West Perron 2,4.31480,51.904096,,0,vdw,2
vem,vem,Voorst-Empe,6.14346,52.157690,Europe/Amsterdam,1,,
vem|0,,Voorst-Empe,6.14346,52.157690,,0,vem,
vem|1,,Voorst-Empe Perron 1,6.14346,52.157690,,0,vem,1
vg,vg,Vught,5.29168,51.655656,Europe/Amsterdam,1,,
vg|0,,Vught,5.29168,51.655656,,0,vg,
vg|1,,Vught Perron 1,5.29168,51.655656,,0,vg,1
vg|2,,Vught Perron 2,5.29168,51.655656,,0,vg,2
vh,vh,Voorhout,4.48449,52.223896,Europe/Amsterdam,1,,
vh|0,,Voorhout,4.48449,52.223896,,0,vh,
vh|1,,Voorhout Perron 1,4.48449,52.223896,,0,vh,1
vh|2,,Voorhout Perron 2,4.48449,52.223896,,0,vh,2
vhp,vhp,Vroomshoop,6.56967,52.457190,Europe/Amsterdam,1,,
vhp|0,,Vroomshoop,6.56967,52.457190,,0,vhp,
vhp|1,,Vroomshoop Perron 1,6.56967,52.457190,,0,vhp,1
vhp|2,,Vroomshoop Perron 2,6.56967,52.457190,,0,vhp,2
viers,viers,Viersen,6.40427,51.255028,Europe/Amsterdam,1,,
viers|0,,Viersen,6.40427,51.255028,,0,viers,
vk,vk,Valkenburg,5.83281,50.869222,Europe/Amsterdam,1,,
vk|0,,Valkenburg,5.83281,50.869222,,0,vk,
vk|1,,Valkenburg Perron 1,5.83281,50.869222,,0,vk,1
vk|2,,Valkenburg Perron 2,5.83281,50.869222,,0,vk,2
vk|3,,Valkenburg Perron 3,5.83281,50.869222,,0,vk,3
vl,vl,Venlo,6.17164,51.364968,Europe/Amsterdam,1,,
vl|0,,Venlo,6.17164,51.364968,,0,vl,
vl|1,,Venlo Perron 1,6.17164,51.364968,,0,vl,1
vl|1a,,Venlo Perron 1a,6.17164,51.364968,,0,vl,1a
vl|3,,Venlo Perron 3,6.17164,51.364968,,0,vl,3
vl|3a,,Venlo Perron 3a,6.17164,51.364968,,0,vl,3a
vl|4a,,Venlo Perron 4a,6.17164,51.364968,,0,vl,4a
vl|4b,,Venlo Perron 4b,6.17164,51.364968,,0,vl,4b
vl|6,,Venlo Perron 6,6.17164,51.364968,,0,vl,6
vlb,vlb,Vierlingsbeek,5.99720,51.591902,Europe/Amsterdam,1,,
vlb|0,,Vierlingsbeek,5.99720,51.591902,,0,vlb,
vlb|1,,Vierlingsbeek Perron 1,5.99720,51.591902,,0,vlb,1
vlb|2,,Vierlingsbeek Perron 2,5.99720,51.591902,,0,vlb,2
vndc,vndc,Veenendaal Centrum,5.54891,52.019881,Europe/Amsterdam,1,,
vndc|0,,Veenendaal Centrum,5.54891,52.019881,,0,vndc,
vndc|1,,Veenendaal Centrum Perron 1,5.54891,52.019881,,0,vndc,1
vndc|2,,Veenendaal Centrum Perron 2,5.54891,52.019881,,0,vndc,2
vndw,vndw,Veenendaal West,5.53291,52.027812,Europe/Amsterdam,1,,
vndw|0,,Veenendaal West,5.53291,52.027812,,0,vndw,
vndw|1,,Veenendaal West Perron 1,5.53291,52.027812,,0,vndw,1
vndw|2,,Veenendaal West Perron 2,5.53291,52.027812,,0,vndw,2
vp,vp,Velp,5.98157,51.995571,Europe/Amsterdam,1,,
vp|0,,Velp,5.98157,51.995571,,0,vp,
vp|1,,Velp Perron 1,5.98157,51.995571,,0,vp,1
vp|2,,Velp Perron 2,5.98157,51.995571,,0,vp,2
vry,vry,Venray,6.01419,51.526464,Europe/Amsterdam,1,,
vry|0,,Venray,6.01419,51.526464,,0,vry,
vry|1,,Venray Perron 1,6.01419,51.526464,,0,vry,1
vry|2,,Venray Perron 2,6.01419,51.526464,,0,vry,2
vry|3,,Venray Perron 3,6.01419,51.526464,,0,vry,3
vs,vs,Vlissingen,3.59525,51.444456,Europe/Amsterdam,1,,
vs|0,,Vlissingen,3.59525,51.444456,,0,vs,
vs|1,,Vlissingen Perron 1,3.59525,51.444456,,0,vs,1
vs|2,,Vlissingen Perron 2,3.59525,51.444456,,0,vs,2
vs|3,,Vlissingen Perron 3,3.59525,51.444456,,0,vs,3
vss,vss,Vlissingen Souburg,3.59532,51.464686,Europe/Amsterdam,1,,
vss|0,,Vlissingen Souburg,3.59532,51.464686,,0,vss,
vss|1,,Vlissingen Souburg Perron 1,3.59532,51.464686,,0,vss,1
vss|2,,Vlissingen Souburg Perron 2,3.59532,51.464686,,0,vss,2
vst,vst,Voorschoten,4.43360,52.126061,Europe/Amsterdam,1,,
vst|0,,Voorschoten,4.43360,52.126061,,0,vst,
vst|1,,Voorschoten Perron 1,4.43360,52.126061,,0,vst,1
vst|2,,Voorschoten Perron 2,4.43360,52.126061,,0,vst,2
vst|3,,Voorschoten Perron 3,4.43360,52.126061,,0,vst,3
vst|4,,Voorschoten Perron 4,4.43360,52.126061,,0,vst,4
vsv,vsv,Varsseveld,6.45865,51.937181,Europe/Amsterdam,1,,
vsv|0,,Varsseveld,6.45865,51.937181,,0,vsv,
vsv|1,,Varsseveld Perron 1,6.45865,51.937181,,0,vsv,1
vsv|2,,Varsseveld Perron 2,6.45865,51.937181,,0,vsv,2
vtn,vtn,Vleuten,5.00976,52.102888,Europe/Amsterdam,1,,
vtn|0,,Vleuten,5.00976,52.102888,,0,vtn,
vtn|1,,Vleuten Perron 1,5.00976,52.102888,,0,vtn,1
vtn|4,,Vleuten Perron 4,5.00976,52.102888,,0,vtn,4
vwd,vwd,Veenwouden,5.98866,53.234781,Europe/Amsterdam,1,,
vwd|0,,Veenwouden,5.98866,53.234781,,0,vwd,
vwd|1,,Veenwouden Perron 1,5.98866,53.234781,,0,vwd,1
vwd|2,,Veenwouden Perron 2,5.98866,53.234781,,0,vwd,2
vz,vz,Vriezenveen,6.60152,52.401050,Europe/Amsterdam,1,,
vz|0,,Vriezenveen,6.60152,52.401050,,0,vz,
vz|1,,Vriezenveen Perron 1,6.60152,52.401050,,0,vz,1
vz|2,,Vriezenveen Perron 2,6.60152,52.401050,,0,vz,2
wad,wad,Waddinxveen,4.65006,52.044740,Europe/Amsterdam,1,,
wad|0,,Waddinxveen,4.65006,52.044740,,0,wad,
wad|1,,Waddinxveen Perron 1,4.65006,52.044740,,0,wad,1
wad|2,,Waddinxveen Perron 2,4.65006,52.044740,,0,wad,2
wadn,wadn,Waddinxveen Noord,4.64843,52.055336,Europe/Amsterdam,1,,
wadn|0,,Waddinxveen Noord,4.64843,52.055336,,0,wadn,
wadn|1,,Waddinxveen Noord Perron 1,4.64843,52.055336,,0,wadn,1
wc,wc,Wijchen,5.73015,51.811233,Europe/Amsterdam,1,,
wc|0,,Wijchen,5.73015,51.811233,,0,wc,
wc|1,,Wijchen Perron 1,5.73015,51.811233,,0,wc,1
wc|2,,Wijchen Perron 2,5.73015,51.811233,,0,wc,2
wd,wd,Woerden,4.89290,52.085019,Europe/Amsterdam,1,,
wd|0,,Woerden,4.89290,52.085019,,0,wd,
wd|1,,Woerden Perron 1,4.89290,52.085019,,0,wd,1
wd|2,,Woerden Perron 2,4.89290,52.085019,,0,wd,2
wd|5,,Woerden Perron 5,4.89290,52.085019,,0,wd,5
wd|6,,Woerden Perron 6,4.89290,52.085019,,0,wd,6
wdn,wdn,Wierden,6.59237,52.361505,Europe/Amsterdam,1,,
wdn|0,,Wierden,6.59237,52.361505,,0,wdn,
wdn|1,,Wierden Perron 1,6.59237,52.361505,,0,wdn,1
wdn|2,,Wierden Perron 2,6.59237,52.361505,,0,wdn,2
wdn|3,,Wierden Perron 3,6.59237,52.361505,,0,wdn,3
wf,wf,Wolfheze,5.79266,52.005991,Europe/Amsterdam,1,,
wf|0,,Wolfheze,5.79266,52.005991,,0,wf,
wf|1,,Wolfheze Perron 1,5.79266,52.005991,,0,wf,1
wf|2,,Wolfheze Perron 2,5.79266,52.005991,,0,wf,2
wf|3,,Wolfheze Perron 3,5.79266,52.005991,,0,wf,3
wfm,wfm,Warffum,6.56713,53.390441,Europe/Amsterdam,1,,
wfm|0,,Warffum,6.56713,53.390441,,0,wfm,
wfm|1,,Warffum Perron 1,6.56713,53.390441,,0,wfm,1
wfm|2,,Warffum Perron 2,6.56713,53.390441,,0,wfm,2
wh,wh,Wijhe,6.14156,52.390943,Europe/Amsterdam,1,,
wh|0,,Wijhe,6.14156,52.390943,,0,wh,
wh|1,,Wijhe Perron 1,6.14156,52.390943,,0,wh,1
wh|2,,Wijhe Perron 2,6.14156,52.390943,,0,wh,2
wk,wk,Workum,5.45643,52.972084,Europe/Amsterdam,1,,
wk|0,,Workum,5.45643,52.972084,,0,wk,
wk|1,,Workum Perron 1,5.45643,52.972084,,0,wk,1
wk|2,,Workum Perron 2,5.45643,52.972084,,0,wk,2
wl,wl,Wehl,6.21384,51.957404,Europe/Amsterdam,1,,
wl|0,,Wehl,6.21384,51.957404,,0,wl,
wl|1,,Wehl Perron 1,6.21384,51.957404,,0,wl,1
wl|2,,Wehl Perron 2,6.21384,51.957404,,0,wl,2
wm,wm,Wormerveer,4.79327,52.489464,Europe/Amsterdam,1,,
wm|0,,Wormerveer,4.79327,52.489464,,0,wm,
wm|2,,Wormerveer Perron 2,4.79327,52.489464,,0,wm,2
wm|3,,Wormerveer Perron 3,4.79327,52.489464,,0,wm,3
wp,wp,Weesp,5.04421,52.312142,Europe/Amsterdam,1,,
wp|0,,Weesp,5.04421,52.312142,,0,wp,
wp|1,,Weesp Perron 1,5.04421,52.312142,,0,wp,1
wp|2,,Weesp Perron 2,5.04421,52.312142,,0,wp,2
wp|5,,Weesp Perron 5,5.04421,52.312142,,0,wp,5
wp|6,,Weesp Perron 6,5.04421,52.312142,,0,wp,6
wr,wr,Weener,7.34465,53.162621,Europe/Amsterdam,1,,
wr|0,,Weener,7.34465,53.162621,,0,wr,
ws,ws,Winschoten,7.03510,53.139236,Europe/Amsterdam,1,,
ws|0,,Winschoten,7.03510,53.139236,,0,ws,
ws|1,,Winschoten Perron 1,7.03510,53.139236,,0,ws,1
ws|2,,Winschoten Perron 2,7.03510,53.139236,,0,ws,2
wsm,wsm,Winsum,6.52029,53.329697,Europe/Amsterdam,1,,
wsm|0,,Winsum,6.52029,53.329697,,0,wsm,
wsm|1,,Winsum Perron 1,6.52029,53.329697,,0,wsm,1
wsm|2,,Winsum Perron 2,6.52029,53.329697,,0,wsm,2
wt,wt,Weert,5.70402,51.249066,Europe/Amsterdam,1,,
wt|0,,Weert,5.70402,51.249066,,0,wt,
wt|2,,Weert Perron 2,5.70402,51.249066,,0,wt,2
wt|3a,,Weert Perron 3a,5.70402,51.249066,,0,wt,3a
wt|3b,,Weert Perron 3b,5.70402,51.249066,,0,wt,3b
wtv,wtv,Westervoort,5.97108,51.961827,Europe/Amsterdam,1,,
wtv|0,,Westervoort,5.97108,51.961827,,0,wtv,
wtv|1,,Westervoort Perron 1,5.97108,51.961827,,0,wtv,1
wtv|2,,Westervoort Perron 2,5.97108,51.961827,,0,wtv,2
wupph,wupph,Wuppertal Hbf,7.14935,51.254306,Europe/Amsterdam,1,,
wupph|0,,Wuppertal Hbf,7.14935,51.254306,,0,wupph,
wv,wv,Wolvega,6.00501,52.880012,Europe/Amsterdam,1,,
wv|0,,Wolvega,6.00501,52.880012,,0,wv,
wv|2,,Wolvega Perron 2,6.00501,52.880012,,0,wv,2
wv|3,,Wolvega Perron 3,6.00501,52.880012,,0,wv,3
ww,ww,Winterswijk,6.71552,51.967729,Europe/Amsterdam,1,,
ww|0,,Winterswijk,6.71552,51.967729,,0,ww,
ww|1a,,Winterswijk Perron 1a,6.71552,51.967729,,0,ww,1a
ww|1b,,Winterswijk Perron 1b,6.71552,51.967729,,0,ww,1b
www,www,Winterswijk West,6.70292,51.975062,Europe/Amsterdam,1,,
www|0,,Winterswijk West,6.70292,51.975062,,0,www,
www|1,,Winterswijk West Perron 1,6.70292,51.975062,,0,www,1
wz,wz,Wezep,6.00169,52.453677,Europe/Amsterdam,1,,
wz|0,,Wezep,6.00169,52.453677,,0,wz,
wz|1,,Wezep Perron 1,6.00169,52.453677,,0,wz,1
wz|2,,Wezep Perron 2,6.00169,52.453677,,0,wz,2
ypb,ypb,Den Haag Ypenburg,4.39298,52.055165,Europe/Amsterdam,1,,
ypb|0,,Den Haag Ypenburg,4.39298,52.055165,,0,ypb,
ypb|1,,Den Haag Ypenburg Perron 1,4.39298,52.055165,,0,ypb,1
ypb|2,,Den Haag Ypenburg Perron 2,4.39298,52.055165,,0,ypb,2
za,za,Zetten-Andelst,5.72284,51.919654,Europe/Amsterdam,1,,
za|0,,Zetten-Andelst,5.72284,51.919654,,0,za,
za|1,,Zetten-Andelst Perron 1,5.72284,51.919654,,0,za,1
za|2,,Zetten-Andelst Perron 2,5.72284,51.919654,,0,za,2
zb,zb,Zuidbroek,6.86795,53.159572,Europe/Amsterdam,1,,
zb|0,,Zuidbroek,6.86795,53.159572,,0,zb,
zb|1,,Zuidbroek Perron 1,6.86795,53.159572,,0,zb,1
zb|2,,Zuidbroek Perron 2,6.86795,53.159572,,0,zb,2
zb|3,,Zuidbroek Perron 3,6.86795,53.159572,,0,zb,3
zbm,zbm,Zaltbommel,5.26308,51.807984,Europe/Amsterdam,1,,
zbm|0,,Zaltbommel,5.26308,51.807984,,0,zbm,
zbm|1,,Zaltbommel Perron 1,5.26308,51.807984,,0,zbm,1
zbm|2,,Zaltbommel Perron 2,5.26308,51.807984,,0,zbm,2
zd,zd,Zaandam,4.81381,52.438426,Europe/Amsterdam,1,,
zd|0,,Zaandam,4.81381,52.438426,,0,zd,
zd|1,,Zaandam Perron 1,4.81381,52.438426,,0,zd,1
zd|2,,Zaandam Perron 2,4.81381,52.438426,,0,zd,2
zd|4,,Zaandam Perron 4,4.81381,52.438426,,0,zd,4
zd|5,,Zaandam Perron 5,4.81381,52.438426,,0,zd,5
zdk,zdk,Zaandam Kogerveld,4.81976,52.456610,Europe/Amsterdam,1,,
zdk|0,,Zaandam Kogerveld,4.81976,52.456610,,0,zdk,
zdk|1,,Zaandam Kogerveld Perron 1,4.81976,52.456610,,0,zdk,1
zdk|2,,Zaandam Kogerveld Perron 2,4.81976,52.456610,,0,zdk,2
zh,zh,Zuidhorn,6.40623,53.248227,Europe/Amsterdam,1,,
zh|0,,Zuidhorn,6.40623,53.248227,,0,zh,
zh|1,,Zuidhorn Perron 1,6.40623,53.248227,,0,zh,1
zh|2,,Zuidhorn Perron 2,6.40623,53.248227,,0,zh,2
zl,zl,Zwolle,6.08976,52.505586,Europe/Amsterdam,1,,
zl|0,,Zwolle,6.08976,52.505586,,0,zl,
zl|1,,Zwolle Perron 1,6.08976,52.505586,,0,zl,1
zl|10,,Zwolle Perron 10,6.08976,52.505586,,0,zl,10
zl|12,,Zwolle Perron 12,6.08976,52.505586,,0,zl,12
zl|14,,Zwolle Perron 14,6.08976,52.505586,,0,zl,14
zl|15,,Zwolle Perron 15,6.08976,52.505586,,0,zl,15
zl|16,,Zwolle Perron 16,6.08976,52.505586,,0,zl,16
zl|1a,,Zwolle Perron 1a,6.08976,52.505586,,0,zl,1a
zl|1b,,Zwolle Perron 1b,6.08976,52.505586,,0,zl,1b
zl|3,,Zwolle Perron 3,6.08976,52.505586,,0,zl,3
zl|3a,,Zwolle Perron 3a,6.08976,52.505586,,0,zl,3a
zl|3b,,Zwolle Perron 3b,6.08976,52.505586,,0,zl,3b
zl|4,,Zwolle Perron 4,6.08976,52.505586,,0,zl,4
zl|5,,Zwolle Perron 5,6.08976,52.505586,,0,zl,5
zl|5a,,Zwolle Perron 5a,6.08976,52.505586,,0,zl,5a
zl|5b,,Zwolle Perron 5b,6.08976,52.505586,,0,zl,5b
zl|6,,Zwolle Perron 6,6.08976,52.505586,,0,zl,6
zl|6a,,Zwolle Perron 6a,6.08976,52.505586,,0,zl,6a
zl|6b,,Zwolle Perron 6b,6.08976,52.505586,,0,zl,6b
zl|7,,Zwolle Perron 7,6.08976,52.505586,,0,zl,7
zlw,zlw,Lage Zwaluwe,4.66365,51.690493,Europe/Amsterdam,1,,
zlw|0,,Lage Zwaluwe,4.66365,51.690493,,0,zlw,
zlw|1,,Lage Zwaluwe Perron 1,4.66365,51.690493,,0,zlw,1
zlw|2,,Lage Zwaluwe Perron 2,4.66365,51.690493,,0,zlw,2
zlw|3,,Lage Zwaluwe Perron 3,4.66365,51.690493,,0,zlw,3
zlw|4,,Lage Zwaluwe Perron 4,4.66365,51.690493,,0,zlw,4
zp,zp,Zutphen,6.19422,52.144680,Europe/Amsterdam,1,,
zp|0,,Zutphen,6.19422,52.144680,,0,zp,
zp|1,,Zutphen Perron 1,6.19422,52.144680,,0,zp,1
zp|1a,,Zutphen Perron 1a,6.19422,52.144680,,0,zp,1a
zp|1b,,Zutphen Perron 1b,6.19422,52.144680,,0,zp,1b
zp|2a,,Zutphen Perron 2a,6.19422,52.144680,,0,zp,2a
zp|2b,,Zutphen Perron 2b,6.19422,52.144680,,0,zp,2b
zp|3,,Zutphen Perron 3,6.19422,52.144680,,0,zp,3
zp|3a,,Zutphen Perron 3a,6.19422,52.144680,,0,zp,3a
zp|3b,,Zutphen Perron 3b,6.19422,52.144680,,0,zp,3b
ztm,ztm,Zoetermeer,4.47814,52.047494,Europe/Amsterdam,1,,
ztm|0,,Zoetermeer,4.47814,52.047494,,0,ztm,
ztm|3,,Zoetermeer Perron 3,4.47814,52.047494,,0,ztm,3
ztm|4,,Zoetermeer Perron 4,4.47814,52.047494,,0,ztm,4
ztmo,ztmo,Zoetermeer Oost,4.49244,52.046525,Europe/Amsterdam,1,,
ztmo|0,,Zoetermeer Oost,4.49244,52.046525,,0,ztmo,
ztmo|1,,Zoetermeer Oost Perron 1,4.49244,52.046525,,0,ztmo,1
ztmo|2,,Zoetermeer Oost Perron 2,4.49244,52.046525,,0,ztmo,2
zue,zue,Zuerich HB,8.54010,47.377672,Europe/Amsterdam,1,,
zue|0,,Zuerich HB,8.54010,47.377672,,0,zue,
zv,zv,Zevenaar,6.07365,51.922892,Europe/Amsterdam,1,,
zv|0,,Zevenaar,6.07365,51.922892,,0,zv,
zv|1,,Zevenaar Perron 1,6.07365,51.922892,,0,zv,1
zv|3,,Zevenaar Perron 3,6.07365,51.922892,,0,zv,3
zvb,zvb,Zevenbergen,4.61025,51.641791,Europe/Amsterdam,1,,
zvb|0,,Zevenbergen,4.61025,51.641791,,0,zvb,
zvb|1,,Zevenbergen Perron 1,4.61025,51.641791,,0,zvb,1
zvb|2,,Zevenbergen Perron 2,4.61025,51.641791,,0,zvb,2
zvt,zvt,Zandvoort aan Zee,4.53104,52.375872,Europe/Amsterdam,1,,
zvt|0,,Zandvoort aan Zee,4.53104,52.375872,,0,zvt,
zvt|1,,Zandvoort aan Zee Perron 1,4.53104,52.375872,,0,zvt,1
zvt|2,,Zandvoort aan Zee Perron 2,4.53104,52.375872,,0,zvt,2
zwd,zwd,Zwijndrecht,4.64090,51.815654,Europe/Amsterdam,1,,
zwd|0,,Zwijndrecht,4.64090,51.815654,,0,zwd,
zwd|1,,Zwijndrecht Perron 1,4.64090,51.815654,,0,zwd,1
zwd|2,,Zwijndrecht Perron 2,4.64090,51.815654,,0,zwd,2
zwd|3,,Zwijndrecht Perron 3,4.64090,51.815654,,0,zwd,3
zwd|4,,Zwijndrecht Perron 4,4.64090,51.815654,,0,zwd,4
zww,zww,Zwaagwesteinde,6.03530,53.248826,Europe/Amsterdam,1,,
zww|0,,Zwaagwesteinde,6.03530,53.248826,,0,zww,
zww|1,,Zwaagwesteinde Perron 1,6.03530,53.248826,,0,zww,1
zww|2,,Zwaagwesteinde Perron 2,6.03530,53.248826,,0,zww,2
