stop_id,stop_code,stop_name,stop_lon,stop_lat,stop_timezone,location_type,parent_station,platform_code
ut|8a,,Utrecht Centraal Spoor 8a,5.10916292667,52.0907137044,,0,ut,8a
ut|8b,,Utrecht Centraal Spoor 8b,5.11106193066,52.0889964717,,0,ut,8b
nwl,nwl,Schiedam Nieuwland,4.3836401403,51.9228665894,Europe/Amsterdam,1,,
wt|0,,Weert,5.70254802704,51.2483444826,,0,wt,
wt|3,,Weert Spoor 3,5.70402,51.249066,,0,wt,3
wt|2,,Weert Spoor 2,5.70314347744,51.2487809992,,0,wt,2
amf|6a,,Amersfoort Spoor 6a,5.36957859993,52.1538395292,,0,amf,6a
amf|6b,,Amersfoort Spoor 6b,5.37296891212,52.1538954813,,0,amf,6b
nwk,nwk,Nieuwerkerk ad IJssel,4.61695879698,51.965373675,Europe/Amsterdam,1,,
almp|2,,Almere Parkwijk Spoor 2,5.24476468563,52.3766766002,,0,almp,2
kn|0,,Kaldenkirchen,6.2027,51.32718,,0,kn,
paris,paris,Paris-Nord,2.35503,48.880506,Europe/Amsterdam,1,,
almp|1,,Almere Parkwijk Spoor 1,5.24473786354,52.3768010425,,0,almp,1
wp|5,,Weesp Spoor 5,5.04354536533,52.3126274503,,0,wp,5
gbg|2,,Gramsbergen Spoor 2,6.67628109455,52.6097454515,,0,gbg,2
gbg|1,,Gramsbergen Spoor 1,6.67616307735,52.6097894277,,0,gbg,1
aml|4,,Almelo Spoor 4,6.65347158909,52.3583994154,,0,aml,4
aml|3,,Almelo Spoor 3,6.65208220482,52.3591987909,,0,aml,3
aml|2,,Almelo Spoor 2,6.6533267498,52.3583437206,,0,aml,2
kander,kander,Kandersteg,7.671005,46.494951,Europe/Amsterdam,1,,
kander|0,,Kandersteg,7.671005,46.494951,,0,kander,
ehb|1,,Eindhoven Beukenlaan Spoor 1,5.45664846897,51.4508244557,,0,ehb,1
aml|0,,Almelo,6.65590167046,52.3574919101,,0,aml,
asd|11a,,Amsterdam Centraal Spoor 11a,4.89978969097,52.3794699193,,0,asd,11a
wl|0,,Wehl,6.21367514133,51.957404082,,0,wl,
zbm|2,,Zaltbommel Spoor 2,5.26323437691,51.8081172342,,0,zbm,2
asd|11b,,Amsterdam Centraal Spoor 11b,4.90158677101,52.3788215444,,0,asd,11b
wupph|0,,Wuppertal Hbf,7.14935,51.254306,,0,wupph,
ht|1b,,Hertogenbosch ('s) Spoor 1b,5.29348433018,51.6891593397,,0,ht,1b
ht|1a,,Hertogenbosch ('s) Spoor 1a,5.29441773891,51.6913874035,,0,ht,1a
wh|1,,Wijhe Spoor 1,6.14084243774,52.3908673182,,0,wh,1
wh|0,,Wijhe,6.14077806473,52.3910833852,,0,wh,
wh|2,,Wijhe Spoor 2,6.14099264145,52.3908345806,,0,wh,2
assp|2,,Amsterdam Science Park Spoor 2,4.94953393936,52.3525379787,,0,assp,2
assp|1,,Amsterdam Science Park Spoor 1,4.94931936264,52.352354489,,0,assp,1
assp|0,,Amsterdam Science Park,4.94839668274,52.3525445318,,0,assp,
zdk,zdk,Zaandam Kogerveld,4.81926977634,52.4567628717,Europe/Amsterdam,1,,
rb|2,,Rilland-Bath Spoor 2,4.16206419468,51.4226975647,,0,rb,2
wd|1,,Woerden Spoor 1,4.89299297333,52.0850475746,,0,wd,1
wd|0,,Woerden,4.89286959171,52.0855453263,,0,wd,
wd|2,,Woerden Spoor 2,4.89296078682,52.0850904277,,0,wd,2
wd|5,,Woerden Spoor 5,4.89324510098,52.0848530874,,0,wd,5
wd|6,,Woerden Spoor 6,4.89327192307,52.0848168269,,0,wd,6
mrb|0,,Marienberg,6.57389044762,52.5090564536,,0,mrb,
mrb|1,,Marienberg Spoor 1,6.57470315695,52.5092164373,,0,mrb,1
mrb|2,,Marienberg Spoor 2,6.57484531403,52.5091429755,,0,mrb,2
mrb|3,,Marienberg Spoor 3,6.57488018274,52.5091364455,,0,mrb,3
almo|4,,Almere Oostvaarders Spoor 4,5.30023276806,52.4029948996,,0,almo,4
hfd|4,,Hoofddorp Spoor 4,4.6988761425,52.2926964119,,0,hfd,4
almo|1,,Almere Oostvaarders Spoor 1,5.30002355576,52.4032076344,,0,almo,1
hfd|2,,Hoofddorp Spoor 2,4.69847381115,52.2928079667,,0,hfd,2
hfd|1,,Hoofddorp Spoor 1,4.69840407372,52.2928637439,,0,hfd,1
hfd|0,,Hoofddorp,4.69914972782,52.2921255094,,0,hfd,
brd|1,,Barendrecht Spoor 1,4.55317854881,51.8549427443,,0,brd,1
brd|0,,Barendrecht,4.55191254616,51.8554529984,,0,brd,
brd|3,,Barendrecht Spoor 3,4.55298006535,51.8548599103,,0,brd,3
brd|2,,Barendrecht Spoor 2,4.55313563347,51.8549162374,,0,brd,2
wtv|0,,Westervoort,5.96782922745,51.9636384011,,0,wtv,
wtv|1,,Westervoort Spoor 1,5.9685587883,51.9634599119,,0,wtv,1
wtv|2,,Westervoort Spoor 2,5.96839785576,51.9633805832,,0,wtv,2
ebbs,ebbs,Ebbsfleet International,0.31635,51.444011,Europe/London,1,,
mes,mes,Meerssen,5.7506775856,50.8827304764,Europe/Amsterdam,1,,
avtgv,avtgv,Avignon TGV,4.78626251221,43.9216371283,Europe/Amsterdam,1,,
ck|1,,Cuijk Spoor 1,5.87396,51.72722,,0,ck,1
ebeo|0,,Boenen,7.75735,51.598055,,0,ebeo,
gln,gln,Geleen Oost,5.84333181381,50.9674848366,Europe/Amsterdam,1,,
drp,drp,Dronrijp,5.63474,53.177807,Europe/Amsterdam,1,,
pmr|0,,Purmerend,4.95391130447,52.5038566686,,0,pmr,
pmr|1,,Purmerend Spoor 1,4.95410174131,52.503714625,,0,pmr,1
pmr|2,,Purmerend Spoor 2,4.95426669717,52.5036738078,,0,pmr,2
drh,drh,Driehuis,4.638209939,52.4424560103,Europe/Amsterdam,1,,
akm,akm,Akkrum,5.84292411804,53.0476180204,Europe/Amsterdam,1,,
akl,akl,Arkel,4.99302327633,51.8722831697,Europe/Amsterdam,1,,
amri|0,,Almelo de Riet,6.66684508324,52.342218782,,0,amri,
bll|2,,Bloemendaal Spoor 2,4.6275562048,52.403963653,,0,bll,2
bll|1,,Bloemendaal Spoor 1,4.62742209435,52.4039865625,,0,bll,1
bll|0,,Bloemendaal,4.62720751762,52.404192747,,0,bll,
brn,brn,Baarn,5.28172016144,52.2083561771,Europe/Amsterdam,1,,
brd,brd,Barendrecht,4.55227732658,51.8555987842,Europe/Amsterdam,1,,
btl|3,,Boxtel Spoor 3,5.31870782375,51.5847999123,,0,btl,3
btl|2,,Boxtel Spoor 2,5.3187507391,51.584843244,,0,btl,2
btl|0,,Boxtel,5.31935691833,51.5849765721,,0,btl,
btl|7,,Boxtel Spoor 7,5.31838595867,51.5846332514,,0,btl,7
btl|6,,Boxtel Spoor 6,5.31846106052,51.5846599172,,0,btl,6
vz|0,,Vriezenveen,6.60094857216,52.4018559326,,0,vz,
vz|1,,Vriezenveen Spoor 1,6.6004550457,52.4020392166,,0,vz,1
vz|2,,Vriezenveen Spoor 2,6.60039067268,52.4020130332,,0,vz,2
aixtgv|0,,Aix-en Provence TGV,5.31722,43.455,,0,aixtgv,
mrn|0,,Maarn,5.37086606026,52.0644865697,,0,mrn,
lwc,lwc,Leeuwarden Camminghaburen,5.84256470203,53.202186465,Europe/Amsterdam,1,,
mrn|2,,Maarn Spoor 2,5.37030279636,52.0641270965,,0,mrn,2
apg|2,,Appingedam Spoor 2,6.8615090847,53.3259135327,,0,apg,2
apg|1,,Appingedam Spoor 1,6.86151444912,53.3258590652,,0,apg,1
apg|0,,Appingedam,6.86229228973,53.3257180903,,0,apg,
vem|1,,Voorst-Empe Spoor 1,6.14376068115,52.1576046212,,0,vem,1
vem|0,,Voorst-Empe,6.14371240139,52.1578119553,,0,vem,
nkk,nkk,Nijkerk,5.49343496561,52.2221129213,Europe/Amsterdam,1,,
wm|0,,Wormerveer,4.79308336973,52.4894997832,,0,wm,
wm|2,,Wormerveer Spoor 2,4.7925978899,52.4893086966,,0,wm,2
wm|3,,Wormerveer Spoor 3,4.79255765676,52.4892450009,,0,wm,3
eun|0,,Unna,7.69241,51.53902,,0,eun,
mg,mg,Mantgum,5.71334660053,53.1297114948,Europe/Amsterdam,1,,
gbg|0,,Gramsbergen,6.67606651783,52.6102910782,,0,gbg,
ma,ma,Augsburg Hbf,10.8856,48.365473,Europe/Amsterdam,1,,
wp|1,,Weesp Spoor 1,5.0432986021,52.3124044403,,0,wp,1
ebft|0,,Burgsteinfurt,7.32919,52.147541,,0,ebft,
mt,mt,Maastricht,5.70544481277,50.8497439807,Europe/Amsterdam,1,,
mp,mp,Meppel,6.19760602713,52.6918939124,Europe/Amsterdam,1,,
wp|2,,Weesp Spoor 2,5.04334151745,52.3124470746,,0,wp,2
mz,mz,Maarheeze,5.6306219101,51.3038965117,Europe/Amsterdam,1,,
cas|2,,Castricum Spoor 2,4.65871274471,52.5456758731,,0,cas,2
wl|1,,Wehl Spoor 1,6.2134256959,51.9570834176,,0,wl,1
cas|0,,Castricum,4.65902388096,52.5458879193,,0,cas,
cas|1,,Castricum Spoor 1,4.65886831284,52.5457019711,,0,cas,1
zbm|1,,Zaltbommel Spoor 1,5.26338458061,51.808120551,,0,zbm,1
fffm|0,,Frankfurt (M) Hbf,8.66383,50.10712,,0,fffm,
sgl|2,,Houthem-St Gerlach Spoor 2,5.79647898674,50.8734510464,,0,sgl,2
sgl|1,,Houthem-St Gerlach Spoor 1,5.7964682579,50.8733511847,,0,sgl,1
sgl|0,,Houthem-St Gerlach,5.79582989216,50.8735847591,,0,sgl,
wl|2,,Wehl Spoor 2,6.21344178915,51.9570635826,,0,wl,2
mars|0,,Marseille-St-Charles,5.38278579712,43.3035698185,,0,mars,
mdb|2,,Middelburg Spoor 2,3.6174684763,51.4947908665,,0,mdb,2
mdb|0,,Middelburg,3.61777961254,51.495311874,,0,mdb,
mdb|1,,Middelburg Spoor 1,3.61740410328,51.4949211189,,0,mdb,1
hon,hon,Holten,6.42132639885,52.2840106801,Europe/Amsterdam,1,,
hor,hor,Hollandsche Rading,5.17916053534,52.1780651566,Europe/Amsterdam,1,,
ledn|9a,,Leiden Centraal Spoor 9a,4.48297977448,52.1673203124,,0,ledn,9a
ledn|9b,,Leiden Centraal Spoor 9b,4.48109149933,52.165905458,,0,ledn,9b
vb|0,,Voorburg,4.35810685158,52.0670687552,,0,vb,
vb|1,,Voorburg Spoor 1,4.3592749536,52.0666573633,,0,vb,1
vb|2,,Voorburg Spoor 2,4.35931518674,52.0667093028,,0,vb,2
laa,laa,Den Haag Laan v NOI,4.34311330318,52.0789900522,Europe/Amsterdam,1,,
nkk|1,,Nijkerk Spoor 1,5.49362808466,52.2221687876,,0,nkk,1
nkk|0,,Nijkerk,5.49340546131,52.2223248842,,0,nkk,
nkk|2,,Nijkerk Spoor 2,5.49377024174,52.2221014194,,0,nkk,2
ovn,ovn,Overveen,4.60678517818,52.3910801115,Europe/Amsterdam,1,,
rsd|0,,Roosendaal,4.45920467377,51.5400929029,,0,rsd,
rsd|1,,Roosendaal Spoor 1,4.45932269096,51.5407201588,,0,rsd,1
bressx,bressx,Bressoux,5.61264038086,50.6445622404,Europe/Amsterdam,1,,
gdk|0,,Geerdijk,6.56706,52.475282,,0,gdk,
asd|10b,,Amsterdam Centraal Spoor 10b,4.90154385567,52.378788798,,0,asd,10b
asd|10a,,Amsterdam Centraal Spoor 10a,4.8997682333,52.3794404479,,0,asd,10a
hil|2,,Hillegom Spoor 2,4.56599146128,52.3031255709,,0,hil,2
mz|0,,Maarheeze,5.63010692596,51.303655039,,0,mz,
hil|0,,Hillegom,4.56634014845,52.3029467966,,0,hil,
hil|1,,Hillegom Spoor 1,4.56610679626,52.3030894881,,0,hil,1
rsn|1,,Rijssen Spoor 1,6.51931,52.311892,,0,rsn,1
bnc|2,,Barneveld Centrum Spoor 2,5.59032976627,52.1400106158,,0,bnc,2
bnc|0,,Barneveld Centrum,5.59000253677,52.1399250152,,0,bnc,
bnc|1,,Barneveld Centrum Spoor 1,5.5901902914,52.1399941542,,0,bnc,1
hlm|0,,Haarlem,4.63838160038,52.3874755817,,0,hlm,
hlm|1,,Haarlem Spoor 1,4.638209939,52.3878324465,,0,hlm,1
hlm|3,,Haarlem Spoor 3,4.63699221611,52.3882482396,,0,hlm,3
hlm|4,,Haarlem Spoor 4,4.63697075844,52.3882056782,,0,hlm,4
hlm|5,,Haarlem Spoor 5,4.63843524456,52.388002693,,0,hlm,5
hlm|6,,Haarlem Spoor 6,4.63847279549,52.3881631169,,0,hlm,6
eldh|0,,Luedinghausen,7.43167,51.761816,,0,eldh,
bk|0,,Beek-Elsloo,5.7859,50.946967,,0,bk,
bk|3,,Beek-Elsloo Spoor 3,5.78629463911,50.9473474768,,0,bk,3
bk|2,,Beek-Elsloo Spoor 2,5.78637242317,50.9472934005,,0,bk,2
chamb|0,,Chambery,5.91867,45.571982,,0,chamb,
zwd,zwd,Zwijndrecht,4.64083850384,51.8157054426,Europe/Amsterdam,1,,
bonn,bonn,Bonn Hbf,7.09708,50.732021,Europe/Amsterdam,1,,
zww,zww,Zwaagwesteinde,6.03600561619,53.2487500458,Europe/Amsterdam,1,,
mdb,mdb,Middelburg,3.61801028252,51.4951983216,Europe/Amsterdam,1,,
bnk|2,,Bunnik Spoor 2,5.19526183605,52.0631393549,,0,bnk,2
ut|18a,,Utrecht Centraal Spoor 18a,5.1083368063,52.0904665061,,0,ut,18a
ut|18b,,Utrecht Centraal Spoor 18b,5.10998368263,52.0886009385,,0,ut,18b
asch|0,,Aachen Schanz,6.07382,50.769702,,0,asch,
kmb|0,,Montabaur,7.82565,50.444846,,0,kmb,
rv,rv,Reuver,6.07918918133,51.2830346253,Europe/Amsterdam,1,,
zwd|2,,Zwijndrecht Spoor 2,4.6412140131,51.8152710123,,0,zwd,2
zwd|3,,Zwijndrecht Spoor 3,4.64118182659,51.8152444821,,0,zwd,3
zwd|0,,Zwijndrecht,4.64106917381,51.8158911519,,0,zwd,
rs,rs,Rosmalen,5.36923795938,51.715151026,Europe/Amsterdam,1,,
rd,rd,Roodeschool,6.76065802574,53.4191078355,Europe/Amsterdam,1,,
ddr|2,,Dordrecht Spoor 2,4.66770350933,51.8073046099,,0,ddr,2
gvc|1,,Den Haag Centraal Spoor 1,4.32555019855,52.0793840222,,0,gvc,1
gvc|0,,Den Haag Centraal,4.32506203651,52.0802774475,,0,gvc,
gvc|7,,Den Haag Centraal Spoor 7,4.32619526982,52.0795991382,,0,gvc,7
gvc|6,,Den Haag Centraal Spoor 6,4.32609200478,52.0795826542,,0,gvc,6
rb,rb,Rilland-Bath,4.16105031967,51.4226139374,Europe/Amsterdam,1,,
gvc|4,,Den Haag Centraal Spoor 4,4.32588681579,52.0795060038,,0,gvc,4
rl,rl,Ruurlo,6.4495164156,52.0810538229,Europe/Amsterdam,1,,
rm,rm,Roermond,5.99384665489,51.1925101046,Europe/Amsterdam,1,,
gvc|9,,Den Haag Centraal Spoor 9,4.32640179992,52.0796683707,,0,gvc,9
ro,ro,Offenburg,7.94667,48.476438,Europe/Amsterdam,1,,
rh,rh,Rheden,6.03140830994,52.0100808952,Europe/Amsterdam,1,,
gz|4,,Gilze-Rijen Spoor 4,4.92525994778,51.5837832714,,0,gz,4
edn|2,,Eijsden Spoor 2,5.70989727974,50.7716861801,,0,edn,2
edn|0,,Eijsden,5.70965051651,50.7720831037,,0,edn,
edn|1,,Eijsden Spoor 1,5.7098543644,50.7716963577,,0,edn,1
rm|2,,Roermond Spoor 2,5.99428653717,51.1928664658,,0,rm,2
ekeren,ekeren,Ekeren,4.43000078201,51.2670304003,Europe/Amsterdam,1,,
rm|0,,Roermond,5.99289178848,51.1926613903,,0,rm,
had|2,,Heemstede-Aerdenhout Spoor 2,4.60644721985,52.3595198475,,0,had,2
had|0,,Heemstede-Aerdenhout,4.60668861866,52.3594887247,,0,had,
had|1,,Heemstede-Aerdenhout Spoor 1,4.60688710213,52.3594494118,,0,had,1
atn,atn,Aalten,6.5787345171,51.9213877311,Europe/Amsterdam,1,,
atw,atw,Antwerpen-Centraal,4.42096710205,51.2154863992,Europe/Amsterdam,1,,
gr|2,,Gorinchem Spoor 2,4.96783733368,51.833815135,,0,gr,2
gr|1,,Gorinchem Spoor 1,4.96777296066,51.8338714885,,0,gr,1
gr|0,,Gorinchem,4.9677246809,51.8335830905,,0,gr,
bv|0,,Beverwijk,4.65517759323,52.4783467751,,0,bv,
bv|2,,Beverwijk Spoor 2,4.65649187565,52.4783288052,,0,bv,2
bv|3,,Beverwijk Spoor 3,4.65642482042,52.4783680123,,0,bv,3
bv|4,,Beverwijk Spoor 4,4.6563282609,52.4784202884,,0,bv,4
kpn|1,,Kampen Spoor 1,5.92151015997,52.559839938,,0,kpn,1
br|4,,Blerick Spoor 4,6.15562677383,51.3724266927,,0,br,4
br|0,,Blerick,6.15548729897,51.373006026,,0,br,
br|1,,Blerick Spoor 1,6.1552298069,51.3722358125,,0,br,1
br|2,,Blerick Spoor 2,6.15539073944,51.3723027881,,0,br,2
br|3,,Blerick Spoor 3,6.15548193455,51.372349671,,0,br,3
hwd|0,,Heerhugowaard,4.82409,52.67062,,0,hwd,
hwd|1,,Heerhugowaard Spoor 1,4.82377320528,52.6704100206,,0,hwd,1
hwd|2,,Heerhugowaard Spoor 2,4.82386440039,52.6703238165,,0,hwd,2
hwd|3,,Heerhugowaard Spoor 3,4.82388854027,52.6703091781,,0,hwd,3
albert,albert,Albertville,6.38465,45.660264,Europe/Amsterdam,1,,
dln|1,,Dalen Spoor 1,6.75830572844,52.6944998147,,0,dln,1
dln|0,,Dalen,6.75812065601,52.6947192691,,0,dln,
bn|0,,Borne,6.74903601408,52.2986002277,,0,bn,
bn|1,,Borne Spoor 1,6.74846738577,52.2985510188,,0,bn,1
bn|2,,Borne Spoor 2,6.74854785204,52.2985592203,,0,bn,2
ut|5b,,Utrecht Centraal Spoor 5b,5.1108956337,52.0889107732,,0,ut,5b
ut|5a,,Utrecht Centraal Spoor 5a,5.10950624943,52.0907993995,,0,ut,5a
gv|3,,Den Haag HS Spoor 3,4.32263,52.070281,,0,gv,3
gv|1,,Den Haag HS Spoor 1,4.32198286057,52.069911295,,0,gv,1
gv|0,,Den Haag HS,4.32184875011,52.0701124424,,0,gv,
gv|6,,Den Haag HS Spoor 6,4.32249248028,52.0695518655,,0,gv,6
gv|5,,Den Haag HS Spoor 5,4.32231009007,52.069756312,,0,gv,5
gv|4,,Den Haag HS Spoor 4,4.32222962379,52.0698090723,,0,gv,4
eweis|0,,Eschweiler-Weisweiler,6.32058,50.824334,,0,eweis,
aw|0,,Aachen West,6.07072,50.780327,,0,aw,
bf|0,,Baflo,6.51843845844,53.3609793315,,0,bf,
bf|1,,Baflo Spoor 1,6.51883542538,53.3609985395,,0,bf,1
bf|2,,Baflo Spoor 2,6.5187227726,53.3609889355,,0,bf,2
ebgo,ebgo,Borghorst (Westf),7.39616,52.119178,Europe/Amsterdam,1,,
bmn|2,,Brummen Spoor 2,6.1468988657,52.0911191067,,0,bmn,2
bmn|0,,Brummen,6.14734947681,52.0910070447,,0,bmn,
bmn|1,,Brummen Spoor 1,6.14706516266,52.0910927392,,0,bmn,1
bsmz,bsmz,Bussum Zuid,5.16300290823,52.265496548,Europe/Amsterdam,1,,
rsn,rsn,Rijssen,6.51939868927,52.3115845407,Europe/Amsterdam,1,,
rai,rai,Amsterdam RAI,4.89031344652,52.3369615869,Europe/Amsterdam,1,,
rat,rat,Raalte,6.27850413322,52.3910408266,Europe/Amsterdam,1,,
lp|0,,Loppersum,6.74755811691,53.3347747809,,0,lp,
lp|1,,Loppersum Spoor 1,6.74755275249,53.3347491545,,0,lp,1
escht,escht,Eschweiler Talbahnhof,6.26306,50.814716,Europe/Amsterdam,1,,
hwob,hwob,Wolfsburg,10.7882,52.429479,Europe/Amsterdam,1,,
gerp|0,,Groningen Europapark,6.58322453499,53.2061642828,,0,gerp,
gerp|1,,Groningen Europapark Spoor 1,6.58267199993,53.2062960135,,0,gerp,1
gerp|2,,Groningen Europapark Spoor 2,6.58261299133,53.2062285417,,0,gerp,2
gerp|3,,Groningen Europapark Spoor 3,6.58257544041,53.2062092641,,0,gerp,3
ypb,ypb,Den Haag Ypenburg,4.3899782002,52.0561041559,Europe/Amsterdam,1,,
bmr|2,,Boxmeer Spoor 2,5.93965530396,51.6439691787,,0,bmr,2
gdg|1,,Gouda Goverwelle Spoor 1,4.74107265472,52.0151061379,,0,gdg,1
bmr|0,,Boxmeer,5.93992888927,51.6443353529,,0,bmr,
bmr|1,,Boxmeer Spoor 1,5.93904912472,51.6447115105,,0,bmr,1
gn|4a,,Groningen Spoor 4a,6.563590765,53.2106011382,,0,gn,4a
wt|3a,,Weert Spoor 3a,5.70168972015,51.2487306321,,0,wt,3a
ac|0,,Abcoude,4.97580349445,52.2795309727,,0,ac,
ac|2,,Abcoude Spoor 2,4.97653305531,52.2796917905,,0,ac,2
ac|3,,Abcoude Spoor 3,4.97637212276,52.2796556886,,0,ac,3
bdpb,bdpb,Breda-Prinsenbeek,4.72233474255,51.6052912076,Europe/Amsterdam,1,,
gln|0,,Geleen Oost,5.84307700396,50.967466256,,0,gln,
dzw|1,,Delfzijl West Spoor 1,6.90659701824,53.3319589872,,0,dzw,1
bsmz|2,,Bussum Zuid Spoor 2,5.16312897205,52.265421038,,0,bsmz,2
gln|1,,Geleen Oost Spoor 1,5.84351152182,50.9674020681,,0,gln,1
gvc|10,,Den Haag Centraal Spoor 10,4.32652115822,52.079728537,,0,gvc,10
gln|2,,Geleen Oost Spoor 2,5.84343641996,50.9674240271,,0,gln,2
ddr|15,,Dordrecht Spoor 15,4.66940939426,51.8072913424,,0,ddr,15
bsk,bsk,Boskoop,4.64693248272,52.0775015065,Europe/Amsterdam,1,,
bsd,bsd,Beesd,5.19542276859,51.8992801072,Europe/Amsterdam,1,,
hfd|3,,Hoofddorp Spoor 3,4.6988171339,52.2927587513,,0,hfd,3
almo|0,,Almere Oostvaarders,5.30057072639,52.4023926908,,0,almo,
almo|3,,Almere Oostvaarders Spoor 3,5.30017912388,52.4030439924,,0,almo,3
almo|2,,Almere Oostvaarders Spoor 2,5.30008256435,52.403135632,,0,almo,2
nh|2,,Nuth Spoor 2,5.89275956154,50.9197620847,,0,nh,2
nh|0,,Nuth,5.89218020439,50.9196876857,,0,nh,
nh|1,,Nuth Spoor 1,5.89268445969,50.919728267,,0,nh,1
bgn|0,,Bergen op Zoom,4.2956328392,51.4951749431,,0,bgn,
bgn|2,,Bergen op Zoom Spoor 2,4.29609954357,51.4946305553,,0,bgn,2
bgn|3,,Bergen op Zoom Spoor 3,4.29618000984,51.4946272155,,0,bgn,3
rsd|4b,,Roosendaal Spoor 4b,4.45815324783,51.5403197837,,0,rsd,4b
rsd|4a,,Roosendaal Spoor 4a,4.46006834507,51.5415142255,,0,rsd,4a
brd|4,,Barendrecht Spoor 4,4.55293715,51.8548400301,,0,brd,4
stz|0,,Soest Zuid,5.30340045691,52.165349375,,0,stz,
stz|1,,Soest Zuid Spoor 1,5.30315905809,52.1653740534,,0,stz,1
ztm,ztm,Zoetermeer,4.47682678699,52.0476145962,Europe/Amsterdam,1,,
mg|1,,Mantgum Spoor 1,5.71350753307,53.1300237056,,0,mg,1
mg|2,,Mantgum Spoor 2,5.71326345205,53.1299432391,,0,mg,2
pmo|1,,Purmerend Overwhere Spoor 1,4.96740818024,52.5113459599,,0,pmo,1
hrt,hrt,Horst-Sevenum,6.04165434837,51.4269723896,Europe/Amsterdam,1,,
pmo|2,,Purmerend Overwhere Spoor 2,4.96746316552,52.511274134,,0,pmo,2
hrt|2,,Horst-Sevenum Spoor 2,6.04156315327,51.4267750473,,0,hrt,2
hrt|1,,Horst-Sevenum Spoor 1,6.04167580605,51.4268553223,,0,hrt,1
hrn,hrn,Haren,6.61775529385,53.1752220409,Europe/Amsterdam,1,,
dn,dn,Deurne,5.78795492649,51.4562231311,Europe/Amsterdam,1,,
dl,dl,Dalfsen,6.25966966152,52.4983345907,Europe/Amsterdam,1,,
shl|1-2,,Schiphol Spoor 1-2,4.76229965687,52.3092756221,,0,shl,1-2
db,db,Driebergen-Zeist,5.25960534811,52.0651560395,Europe/Amsterdam,1,,
da,da,Daarlerveen,6.57596647739,52.4413164272,Europe/Amsterdam,1,,
dz,dz,Delfzijl,6.92390263081,53.3336375943,Europe/Amsterdam,1,,
ldm,ldm,Leerdam,5.09360611439,51.8945133227,Europe/Amsterdam,1,,
dv,dv,Deventer,6.16096,52.257076,Europe/Amsterdam,1,,
dt,dt,Delft,4.35651630163,52.0065394441,Europe/Amsterdam,1,,
ldl,ldl,Leiden Lammenschans,4.49349403381,52.1465388195,Europe/Amsterdam,1,,
dr,dr,Dieren,6.10331296921,52.0447772359,Europe/Amsterdam,1,,
kpnz|2,,Kampen Zuid Spoor 2,5.9131157,52.5329489,,0,kpnz,2
kpnz|1,,Kampen Zuid Spoor 1,5.9132307,52.5331149,,0,kpnz,1
kpnz|0,,Kampen Zuid,5.91231286526,52.5333623884,,0,kpnz,
eml,eml,Ermelo,5.61446964741,52.3011672153,Europe/Amsterdam,1,,
emn,emn,Emmen,6.89937114716,52.7906369563,Europe/Amsterdam,1,,
bressx|0,,Bressoux,5.61143875122,50.6442628867,,0,bressx,
ledn|8b,,Leiden Centraal Spoor 8b,4.48118537664,52.165857747,,0,ledn,8b
ledn|8a,,Leiden Centraal Spoor 8a,4.48307096958,52.167284119,,0,ledn,8a
dn|3,,Deurne Spoor 3,5.78812658787,51.4560058593,,0,dn,3
brusc|0,,Brussel-Centraal,4.35715198517,50.8453781153,,0,brusc,
stv|0,,Stavoren,5.35902142525,52.8864277911,,0,stv,
stv|1,,Stavoren Spoor 1,5.35968661308,52.8866349505,,0,stv,1
pmw|1,,Purmerend Weidevenne Spoor 1,4.93498831987,52.496410191,,0,pmw,1
pmw|0,,Purmerend Weidevenne,4.93558242917,52.4964257041,,0,pmw,
pmw|2,,Purmerend Weidevenne Spoor 2,4.93504866958,52.4963416067,,0,pmw,2
wc,wc,Wijchen,5.72993338108,51.8112332637,Europe/Amsterdam,1,,
wtv,wtv,Westervoort,5.96806526184,51.9634929655,Europe/Amsterdam,1,,
wm,wm,Wormerveer,4.79257375002,52.4892743989,Europe/Amsterdam,1,,
wl,wl,Wehl,6.21393531561,51.9573859001,Europe/Amsterdam,1,,
wk,wk,Workum,5.45658677816,52.9722525479,Europe/Amsterdam,1,,
omn,omn,Ommen,6.41733527184,52.5098808529,Europe/Amsterdam,1,,
wh,wh,Wijhe,6.14086389542,52.3911259437,Europe/Amsterdam,1,,
ww,ww,Winterswijk,6.71552,51.967729,Europe/Amsterdam,1,,
wv,wv,Wolvega,6.004948318,52.879838635,Europe/Amsterdam,1,,
wt,wt,Weert,5.70307910442,51.2487474211,Europe/Amsterdam,1,,
ws,ws,Winschoten,7.03460544348,53.1394131106,Europe/Amsterdam,1,,
ht|3a,,Hertogenbosch ('s) Spoor 3a,5.29366135597,51.6909052199,,0,ht,3a
ht|3b,,Hertogenbosch ('s) Spoor 3b,5.29323756695,51.6891925952,,0,ht,3b
wp,wp,Weesp,5.04355609417,52.3124601929,Europe/Amsterdam,1,,
wz,wz,Wezep,6.00233316422,52.4535216762,Europe/Amsterdam,1,,
rtn,rtn,Rotterdam Noord,4.48164135218,51.9422708488,Europe/Amsterdam,1,,
bhdv|2,,Boven-Hardinxveld Spoor 2,4.87818717957,51.8323698099,,0,bhdv,2
bhdv|0,,Boven-Hardinxveld,4.87832665443,51.8320581971,,0,bhdv,
bhdv|1,,Boven-Hardinxveld Spoor 1,4.87825155258,51.8322637292,,0,bhdv,1
asdm|3,,Amsterdam Muiderpoort Spoor 3,4.93200838566,52.360702495,,0,asdm,3
asdm|2,,Amsterdam Muiderpoort Spoor 2,4.93176162243,52.3606599071,,0,asdm,2
rm|3a,,Roermond Spoor 3a,5.99421143532,51.1923957995,,0,rm,3a
rm|3b,,Roermond Spoor 3b,5.9947425127,51.1936060746,,0,rm,3b
asdm|0,,Amsterdam Muiderpoort,4.93110716343,52.3604731752,,0,asdm,
ut|19b,,Utrecht Centraal Spoor 19b,5.11003732681,52.0884064668,,0,ut,19b
ut|19a,,Utrecht Centraal Spoor 19a,5.10824561119,52.0904401382,,0,ut,19a
tpsw|0,,Tiel Passewaaij,5.39269924164,51.8742488463,,0,tpsw,
tpsw|1,,Tiel Passewaaij Spoor 1,5.39226472378,51.8739838907,,0,tpsw,1
kmr|2,,Klimmen-Ransdaal Spoor 2,5.89035093784,50.8664212786,,0,kmr,2
ut|4b,,Utrecht Centraal Spoor 4b,5.11131942272,52.0890821701,,0,ut,4b
ddn|0,,Delden,6.71469032764,52.2602745621,,0,ddn,
utg|1b,,Uitgeest Spoor 1b,4.70265269279,52.5216395098,,0,utg,1b
utg|1a,,Uitgeest Spoor 1a,4.70112651587,52.522457145,,0,utg,1a
zl|5a,,Zwolle Spoor 5a,6.0901594162,52.5053815672,,0,zl,5a
bde|2,,Bunde Spoor 2,5.73620975018,50.8968364757,,0,bde,2
zl|5b,,Zwolle Spoor 5b,6.09266459942,52.5044640221,,0,zl,5b
karlsr|0,,Karlsruhe Hbf,8.40043,48.99357,,0,karlsr,
osnh,osnh,Osnabrueck Hbf,8.06161,52.272667,Europe/Amsterdam,1,,
hdg|2,,Hurdegaryp Spoor 2,5.93443036079,53.2188391054,,0,hdg,2
hdg|0,,Hurdegaryp,5.93480855227,53.2187636233,,0,hdg,
hdg|1,,Hurdegaryp Spoor 1,5.93491852283,53.2190944587,,0,hdg,1
hvs|0,,Hilversum,5.18125534058,52.2259757443,,0,hvs,
wfm,wfm,Warffum,6.56668066978,53.3902518525,Europe/Amsterdam,1,,
hvsp|2,,Hilversum Sportpark Spoor 2,5.18745660782,52.2169745667,,0,hvsp,2
gnd,gnd,Hardinxveld-Giessendam,4.8359182477,51.8304669489,Europe/Amsterdam,1,,
hgl|0,,Hengelo,6.79438948631,52.2622051761,,0,hgl,
hvs|4,,Hilversum Spoor 4,5.18203854561,52.2262911961,,0,hvs,4
hgl|3,,Hengelo Spoor 3,6.79359,52.262204,,0,hgl,3
gnn,gnn,Groningen Noord,6.55631,53.230145,Europe/Amsterdam,1,,
hvs|5,,Hilversum Spoor 5,5.18210828304,52.2263174836,,0,hvs,5
ow|2,,Oss West Spoor 2,5.50663411617,51.7583094906,,0,ow,2
ow|0,,Oss West,5.50697207451,51.7586199533,,0,ow,
ow|1,,Oss West Spoor 1,5.50659656525,51.7583991431,,0,ow,1
cps|1,,Capelle Schollevaar Spoor 1,4.58415538073,51.9540568272,,0,cps,1
cps|0,,Capelle Schollevaar,4.5841768384,51.9539923591,,0,cps,
cps|2,,Capelle Schollevaar Spoor 2,4.58411514759,51.954177498,,0,cps,2
kohl,kohl,Kohlscheid,6.07453286648,50.8322882318,Europe/Amsterdam,1,,
wdn,wdn,Wierden,6.59227967262,52.3613904471,Europe/Amsterdam,1,,
enhf,enhf,Muenster (W) Zentrum Nord,7.63856,51.984965,Europe/Amsterdam,1,,
gn|3,,Groningen Spoor 3,6.56373,53.210931,,0,gn,3
gn|0,,Groningen,6.56612813473,53.211176193,,0,gn,
gn|7,,Groningen Spoor 7,6.56415402889,53.2104019554,,0,gn,7
gn|6,,Groningen Spoor 6,6.56415402889,53.2104758459,,0,gn,6
osnh|0,,Osnabrueck Hbf,8.06161,52.272667,,0,osnh,
gn|4,,Groningen Spoor 4,6.56414866447,53.2106236265,,0,gn,4
hk|2,,Heemskerk Spoor 2,4.68624293804,52.4948188439,,0,hk,2
hk|1,,Heemskerk Spoor 1,4.68636900187,52.4947600552,,0,hk,1
hk|0,,Heemskerk,4.68550801277,52.4944677437,,0,hk,
hlds,hlds,Hoek van Holland Strand,4.11932319403,51.9818636864,Europe/Amsterdam,1,,
geisl,geisl,Geislingen,9.84186,48.620258,Europe/Amsterdam,1,,
hann,hann,Hannover Hbf,9.74095,52.376726,Europe/Amsterdam,1,,
avat,avat,Amersfoort Vathorst,5.43342,52.192193,Europe/Amsterdam,1,,
db|2,,Driebergen-Zeist Spoor 2,5.25959193707,52.0650834866,,0,db,2
db|3,,Driebergen-Zeist Spoor 3,5.25989,52.065134,,0,db,3
db|0,,Driebergen-Zeist,5.25935858488,52.0653192831,,0,db,
db|1,,Driebergen-Zeist Spoor 1,5.25935724378,52.0652219966,,0,db,1
sn|2,,Schinnen Spoor 2,5.875877738,50.9388229222,,0,sn,2
sn|1,,Schinnen Spoor 1,5.87589114904,50.9388634868,,0,sn,1
sn|0,,Schinnen,5.87453395128,50.9385761533,,0,sn,
mid,mid,Heide,4.46022391319,51.3648946937,Europe/Amsterdam,1,,
dn|2,,Deurne Spoor 2,5.78814804554,51.4560392858,,0,dn,2
emte|0,,Metelen Land,7.25441,52.162414,,0,emte,
dn|0,,Deurne,5.7883143425,51.4558153278,,0,dn,
dn|1,,Deurne Spoor 1,5.78828752041,51.4561094814,,0,dn,1
buende|0,,Buende (Westf.),8.64416,52.224218,,0,buende,
gdk|1a,,Geerdijk Spoor 1a,6.56672358513,52.4765693503,,0,gdk,1a
tu|0,,Ulm Hbf,9.98214,48.39905,,0,tu,
gdk|1b,,Geerdijk Spoor 1b,6.56685233116,52.4759027975,,0,gdk,1b
zp|2a,,Zutphen Spoor 2a,6.19288802147,52.1444385739,,0,zp,2a
zp|2b,,Zutphen Spoor 2b,6.19564533234,52.1453043611,,0,zp,2b
hld|1,,Hoek van Holland Haven Spoor 1,4.13207173347,51.9737978879,,0,hld,1
hld|0,,Hoek van Holland Haven,4.12723571062,51.9763853137,,0,hld,
hld|3,,Hoek van Holland Haven Spoor 3,4.12768632174,51.976299399,,0,hld,3
hld|2,,Hoek van Holland Haven Spoor 2,4.12753611803,51.976251485,,0,hld,2
had,had,Heemstede-Aerdenhout,4.6067905426,52.3594641541,Europe/Amsterdam,1,,
bnk,bnk,Bunnik,5.19551664591,52.0632960099,Europe/Amsterdam,1,,
vdm|5,,Veendam Spoor 5,6.887,53.105142,,0,vdm,5
bnn,bnn,Barneveld Noord,5.59876799583,52.1609712126,Europe/Amsterdam,1,,
vdm|0,,Veendam,6.887,53.105142,,0,vdm,
bnc,bnc,Barneveld Centrum,5.59076964855,52.1396188273,Europe/Amsterdam,1,,
ck|2,,Cuijk Spoor 2,5.87424695492,51.7265895496,,0,ck,2
ck|3,,Cuijk Spoor 3,5.87417185307,51.7265961952,,0,ck,3
ck|0,,Cuijk,5.87448298931,51.7271311627,,0,ck,
londs|0,,London St.Pancras,0.12645,51.531037,,0,londs,
gnd|0,,Hardinxveld-Giessendam,4.83420968056,51.8302282568,,0,gnd,
gnd|1,,Hardinxveld-Giessendam Spoor 1,4.83592092991,51.8304255093,,0,gnd,1
gnd|2,,Hardinxveld-Giessendam Spoor 2,4.83591020107,51.8305183338,,0,gnd,2
hvsp|0,,Hilversum Sportpark,5.18666267395,52.2164585622,,0,hvsp,
vdw,vdw,Vlaardingen West,4.31431308389,51.9039983947,Europe/Amsterdam,1,,
ost|3,,Olst Spoor 3,6.11341953278,52.3353259604,,0,ost,3
vdg,vdg,Vlaardingen Centrum,4.34476286173,51.903304998,Europe/Amsterdam,1,,
gn|3a,,Groningen Spoor 3a,6.563590765,53.2106782409,,0,gn,3a
gn|3b,,Groningen Spoor 3b,6.5656453371,53.2107264301,,0,gn,3b
co|2,,Coevorden Spoor 2,6.73570275307,52.6632268538,,0,co,2
buende,buende,Buende (Westf.),8.64416,52.224218,Europe/Amsterdam,1,,
co|0,,Coevorden,6.73603266478,52.6632333608,,0,co,
co|1,,Coevorden Spoor 1,6.73575639725,52.6632333608,,0,co,1
www,www,Winterswijk West,6.70339822769,51.9747826474,Europe/Amsterdam,1,,
hrl|2,,Heerlen Spoor 2,5.97434699535,50.8909066222,,0,hrl,2
hrl|1,,Heerlen Spoor 1,5.97431480885,50.8908558642,,0,hrl,1
hrl|0,,Heerlen,5.97382128239,50.8904734849,,0,hrl,
wdn|1,,Wierden Spoor 1,6.5922743082,52.3615542436,,0,wdn,1
hrl|5,,Heerlen Spoor 5,5.9744811058,50.8911096539,,0,hrl,5
hrl|4,,Heerlen Spoor 4,5.97447037697,50.8910487445,,0,hrl,4
ht|4a,,Hertogenbosch ('s) Spoor 4a,5.2940261364,51.691460562,,0,ht,4a
fkth,fkth,Kalmthout,4.46680605412,51.391035363,Europe/Amsterdam,1,,
ht|4b,,Hertogenbosch ('s) Spoor 4b,5.29312491417,51.6891992463,,0,ht,4b
olv,olv,Onze Lieve Vrouwe t. Nood,4.68724608421,52.584772908,Europe/Amsterdam,1,,
gn|6b,,Groningen Spoor 6b,6.5657043457,53.2105240353,,0,gn,6b
mout|0,,Moutiers-Salins-Brides,6.5214,45.480519,,0,mout,
rsd|3b,,Roosendaal Spoor 3b,4.45824444294,51.5402530542,,0,rsd,3b
rsd|3a,,Roosendaal Spoor 3a,4.46018099785,51.5414841981,,0,rsd,3a
bhv|1,,Bilthoven Spoor 1,5.20432770252,52.1301094917,,0,bhv,1
bhv|0,,Bilthoven,5.20424723625,52.1302642651,,0,bhv,
bhv|2,,Bilthoven Spoor 2,5.20437598228,52.1300502166,,0,bhv,2
ledn|5a,,Leiden Centraal Spoor 5a,4.48335528374,52.1671557968,,0,ledn,5a
kdul|0,,Duelken,6.3387,51.257021,,0,kdul,
ledn|5b,,Leiden Centraal Spoor 5b,4.4814401865,52.1657113233,,0,ledn,5b
kwo|0,,Wuppertal Oberbarmen,7.22149,51.273869,,0,kwo,
vdm,vdm,Veendam,6.887,53.105142,Europe/Amsterdam,1,,
obd,obd,Obdam,4.90926325321,52.6780375892,Europe/Amsterdam,1,,
vsv|0,,Varsseveld,6.45863592625,51.937498705,,0,vsv,
vsv|1,,Varsseveld Spoor 1,6.45819067955,51.937197742,,0,vsv,1
vsv|2,,Varsseveld Spoor 2,6.4587700367,51.9371845128,,0,vsv,2
vdl,vdl,Voerendaal,5.92961,50.886696,Europe/Amsterdam,1,,
vdo,vdo,Vlaardingen Oost,4.36168089509,51.9101565782,Europe/Amsterdam,1,,
zue,zue,Zuerich HB,8.5401,47.377672,Europe/Amsterdam,1,,
atn|2,,Aalten Spoor 2,6.57841533422,51.9212768975,,0,atn,2
atn|0,,Aalten,6.57820612192,51.92142247,,0,atn,
atn|1,,Aalten Spoor 1,6.57841801643,51.9212471213,,0,atn,1
bourg|0,,Bourg-St-Maurice,6.77187,45.616355,,0,bourg,
sog,sog,Schin op Geul,5.87176859379,50.8561040681,Europe/Amsterdam,1,,
ahp,ahp,Arnhem Velperpoort,5.91968894005,51.985012291,Europe/Amsterdam,1,,
ahz,ahz,Arnhem Zuid,5.85187196732,51.9551759126,Europe/Amsterdam,1,,
nvp|1,,Nieuw Vennep Spoor 1,4.64500665665,52.2591417647,,0,nvp,1
nvp|0,,Nieuw Vennep,4.64552164078,52.2590498262,,0,nvp,
nvp|2,,Nieuw Vennep Spoor 2,4.64563429356,52.2589743052,,0,nvp,2
dzw|0,,Delfzijl West,6.90617859364,53.3321191625,,0,dzw,
wad,wad,Waddinxveen,4.64986681938,52.0443384188,Europe/Amsterdam,1,,
baselb|0,,Basel Bad Bf,7.60778,47.567364,,0,baselb,
wsm|2,,Winsum Spoor 2,6.52024626732,53.3302130377,,0,wsm,2
za|2,,Zetten-Andelst Spoor 2,5.72240978479,51.919657372,,0,za,2
za|1,,Zetten-Andelst Spoor 1,5.72243660688,51.919741741,,0,za,1
za|0,,Zetten-Andelst,5.72344779968,51.9198476155,,0,za,
ahpr|2,,Arnhem Presikhaaf Spoor 2,5.94316363335,51.9876486228,,0,ahpr,2
ahpr|1,,Arnhem Presikhaaf Spoor 1,5.94308316708,51.9877179978,,0,ahpr,1
ahpr|0,,Arnhem Presikhaaf,5.94234824181,51.9875561225,,0,ahpr,
mrn|1,,Maarn Spoor 1,5.37035107613,52.0642161406,,0,mrn,1
minden|0,,Minden (Westf.),8.93498003483,52.2905177559,,0,minden,
hvl|2,,Hoevelaken Spoor 2,5.45886933804,52.1662986604,,0,hvl,2
nvd|0,,Nijverdal,6.47042155266,52.365445871,,0,nvd,
mtr,mtr,Maastricht Randwyck,5.71757376194,50.8374514504,Europe/Amsterdam,1,,
hmbv|2,,Helmond Brandevoort Spoor 2,5.60723304749,51.4621191592,,0,hmbv,2
hmbv|1,,Helmond Brandevoort Spoor 1,5.60732424259,51.4620255774,,0,hmbv,1
hmbv|0,,Helmond Brandevoort,5.60781240463,51.4626906725,,0,hmbv,
mth,mth,Martenshoek,6.74005866051,53.1609084858,Europe/Amsterdam,1,,
nvd|2,,Nijverdal Spoor 2,6.47031962872,52.3656391331,,0,nvd,2
ehw|0,,Holtwick,7.12261,51.998474,,0,ehw,
wsm|0,,Winsum,6.51987075806,53.3302066305,,0,wsm,
wadn|0,,Waddinxveen Noord,4.64805364609,52.0552316876,,0,wadn,
wadn|1,,Waddinxveen Noord Spoor 1,4.6483540535,52.0553372423,,0,wadn,1
kboi|0,,Boisheim,6.27442,51.274429,,0,kboi,
vwd,vwd,Veenwouden,5.98959267139,53.2351577761,Europe/Amsterdam,1,,
hamm,hamm,Hamm (Westf.),7.80782,51.678039,Europe/Amsterdam,1,,
wsm|1,,Winsum Spoor 1,6.52032673359,53.3302098341,,0,wsm,1
hamh,hamh,Hamburg Hbf,10.00697,53.552724,Europe/Amsterdam,1,,
nh,nh,Nuth,5.89235723019,50.9198331019,Europe/Amsterdam,1,,
leer,leer,Leer (Ostfriesland),7.46485590935,53.2314684348,Europe/Amsterdam,1,,
nm,nm,Nijmegen,5.85303068161,51.8432285026,Europe/Amsterdam,1,,
na,na,Nieuw Amsterdam,6.84881687164,52.7185665751,Europe/Amsterdam,1,,
valtgv|0,,Valence TGV,4.89217758179,44.9251891281,,0,valtgv,
ns,ns,Nunspeet,5.78469,52.371019,Europe/Amsterdam,1,,
bhf|0,,Berlin Ostbahnhof,13.43461,52.511013,,0,bhf,
wfm|1,,Warffum Spoor 1,6.56694889069,53.3902710473,,0,wfm,1
wfm|0,,Warffum,6.5665358305,53.390191069,,0,wfm,
wfm|2,,Warffum Spoor 2,6.56698644161,53.3902422551,,0,wfm,2
drh|2,,Driehuis Spoor 2,4.63881343603,52.4428418596,,0,drh,2
drh|1,,Driehuis Spoor 1,4.63888585567,52.4428042558,,0,drh,1
drh|0,,Driehuis,4.63900923729,52.44311326,,0,drh,
tpsw,tpsw,Tiel Passewaaij,5.39250612259,51.8741660478,Europe/Amsterdam,1,,
ah|7,,Arnhem Spoor 7,5.89963138103,51.9849957721,,0,ah,7
eml|2,,Ermelo Spoor 2,5.61461448669,52.3014919737,,0,eml,2
eml|1,,Ermelo Spoor 1,5.61473250389,52.3014690111,,0,eml,1
eml|0,,Ermelo,5.61479151249,52.3009146237,,0,eml,
eabg|0,,Altenberge,7.48124,52.052245,,0,eabg,
dussel,dussel,Duesseldorf Hbf,6.79429,51.219948,Europe/Amsterdam,1,,
ebok,ebok,Bork (Westf),7.45658,51.669851,Europe/Amsterdam,1,,
dr|2,,Dieren Spoor 2,6.10298037529,52.0447706372,,0,dr,2
dr|0,,Dieren,6.10304474831,52.0445000887,,0,dr,
dr|1,,Dieren Spoor 1,6.10307693481,52.0447310448,,0,dr,1
lls,lls,Lelystad Centrum,5.47285705805,52.5080149133,Europe/Amsterdam,1,,
ost,ost,Olst,6.11323714256,52.3357127473,Europe/Amsterdam,1,,
asb|8,,Amsterdam Bijlmer ArenA Spoor 8,4.94752764702,52.3124733111,,0,asb,8
rbb|0,,Baden-Baden,8.19049,48.790066,,0,rbb,
asb|3,,Amsterdam Bijlmer ArenA Spoor 3,4.94673371315,52.3122470207,,0,asb,3
asb|2,,Amsterdam Bijlmer ArenA Spoor 2,4.94657814503,52.3122207841,,0,asb,2
asb|1,,Amsterdam Bijlmer ArenA Spoor 1,4.94636356831,52.3121748699,,0,asb,1
asb|0,,Amsterdam Bijlmer ArenA,4.94703948498,52.3114074405,,0,asb,
asb|7,,Amsterdam Bijlmer ArenA Spoor 7,4.94740962982,52.3124241177,,0,asb,7
asb|6,,Amsterdam Bijlmer ArenA Spoor 6,4.94733452797,52.3124011607,,0,asb,6
rhn|1,,Rhenen Spoor 1,5.57850122452,51.958448705,,0,rhn,1
rhn|0,,Rhenen,5.57908058167,51.9581577998,,0,rhn,
gn|2b,,Groningen Spoor 2b,6.56562387943,53.2108356586,,0,gn,2b
vem,vem,Voorst-Empe,6.14354074001,52.1577461351,Europe/Amsterdam,1,,
alm|1,,Almere Centrum Spoor 1,5.21796405315,52.3752094638,,0,alm,1
alm|0,,Almere Centrum,5.21966457367,52.3756384752,,0,alm,
alm|3,,Almere Centrum Spoor 3,5.21807134151,52.3750162436,,0,alm,3
alm|2,,Almere Centrum Spoor 2,5.21799087524,52.375124316,,0,alm,2
alm|4,,Almere Centrum Spoor 4,5.21810352802,52.3749310954,,0,alm,4
amrn,amrn,Alkmaar Noord,4.76386,52.643807,Europe/Amsterdam,1,,
dz|0,,Delfzijl,6.92410647869,53.3335895435,,0,dz,
dz|1,,Delfzijl Spoor 1,6.92344665527,53.3337208822,,0,dz,1
utt|4,,Utrecht Terwijde Spoor 4,5.04085242748,52.1006565337,,0,utt,4
aime|0,,Aime-la-Plagne,6.6476,45.549796,,0,aime,
utt|0,,Utrecht Terwijde,5.04114747047,52.1007817525,,0,utt,
utt|1,,Utrecht Terwijde Spoor 1,5.04084706306,52.1005609718,,0,utt,1
dv|2,,Deventer Spoor 2,6.16041183472,52.2573160941,,0,dv,2
dv|3,,Deventer Spoor 3,6.1606746912,52.2573554979,,0,dv,3
dv|0,,Deventer,6.15984320641,52.2573292287,,0,dv,
dv|4,,Deventer Spoor 4,6.15932285786,52.258100879,,0,dv,4
did,did,Didam,6.13243639469,51.9334206498,Europe/Amsterdam,1,,
drp|2,,Dronrijp Spoor 2,5.63484638929,53.1777202332,,0,drp,2
drp|1,,Dronrijp Spoor 1,5.63482761383,53.177752384,,0,drp,1
drp|0,,Dronrijp,5.63444405794,53.1778134705,,0,drp,
enow,enow,Nordwalde,7.4617,52.077585,Europe/Amsterdam,1,,
ese|0,,Enschede De Eschmarke,6.9510948658,52.2215197486,,0,ese,
ese|1,,Enschede De Eschmarke Spoor 1,6.95114582777,52.2212699893,,0,ese,1
viers|0,,Viersen,6.40427,51.255028,,0,viers,
karlsr,karlsr,Karlsruhe Hbf,8.40043,48.99357,Europe/Amsterdam,1,,
utl|0,,Utrecht Lunetten,5.14342010021,52.0659771982,,0,utl,
utl|1,,Utrecht Lunetten Spoor 1,5.14377951622,52.066011825,,0,utl,1
pmr,pmr,Purmerend,4.95416879654,52.5036950327,Europe/Amsterdam,1,,
hto,hto,Hertogenb ('s) Oost,5.31849,51.700797,Europe/Amsterdam,1,,
htn,htn,Houten,5.16753315926,52.0349077579,Europe/Amsterdam,1,,
bfbi,bfbi,Berlin Brandenburg Flughafen,13.51183,52.390895,Europe/Amsterdam,1,,
ypb|2,,Den Haag Ypenburg Spoor 2,4.39002647996,52.0561651785,,0,ypb,2
dmnz|2,,Diemen Zuid Spoor 2,4.95534360409,52.3302318585,,0,dmnz,2
dmnz|1,,Diemen Zuid Spoor 1,4.95542407036,52.3301499022,,0,dmnz,1
dmnz|0,,Diemen Zuid,4.95501637459,52.3305859077,,0,dmnz,
pmo,pmo,Purmerend Overwhere,4.96743634343,52.5113075984,Europe/Amsterdam,1,,
ledn|4b,,Leiden Centraal Spoor 4b,4.48155015707,52.1656619669,,0,ledn,4b
ledn|4a,,Leiden Centraal Spoor 4a,4.48346793652,52.1671097323,,0,ledn,4a
ypb|1,,Den Haag Ypenburg Spoor 1,4.38991516829,52.0560439578,,0,ypb,1
ass|10,,Amsterdam Sloterdijk Spoor 10,4.83554005623,52.3882122261,,0,ass,10
ass|11,,Amsterdam Sloterdijk Spoor 11,4.8379701376,52.3890208839,,0,ass,11
ass|12,,Amsterdam Sloterdijk Spoor 12,4.83816862106,52.3890372533,,0,ass,12
kpnz,kpnz,Kampen Zuid,5.91265082359,52.5336169151,Europe/Amsterdam,1,,
bdpb|2,,Breda-Prinsenbeek Spoor 2,4.7213101387,51.6057309909,,0,bdpb,2
zp|3b,,Zutphen Spoor 3b,6.19559168816,52.1453471563,,0,zp,3b
zp|3a,,Zutphen Spoor 3a,6.19282364845,52.1445011219,,0,zp,3a
ekz,ekz,Enkhuizen,5.28884679079,52.6997095273,Europe/Amsterdam,1,,
rf,rf,Freiburg (Breisgau) Hbf,7.84131,47.997921,Europe/Amsterdam,1,,
ana|2,,Anna Paulowna Spoor 2,4.81137871742,52.8676433847,,0,ana,2
ana|1,,Anna Paulowna Spoor 1,4.81119096279,52.8676433847,,0,ana,1
ana|0,,Anna Paulowna,4.81178641319,52.8676012871,,0,ana,
kwba|0,,Wuppertal-Barmen,7.19599,51.267076,,0,kwba,
bdpb|0,,Breda-Prinsenbeek,4.72273170948,51.6051012998,,0,bdpb,
htnc|2,,Houten Castellum Spoor 2,5.17847120762,52.018473593,,0,htnc,2
htnc|1,,Houten Castellum Spoor 1,5.17870187759,52.0185132087,,0,htnc,1
htnc|0,,Houten Castellum,5.17887890339,52.018767408,,0,htnc,
ut|18,,Utrecht Centraal Spoor 18,5.10894834995,52.0896490939,,0,ut,18
bdpb|1,,Breda-Prinsenbeek Spoor 1,4.72146570683,51.6057576443,,0,bdpb,1
hmbv,hmbv,Helmond Brandevoort,5.60725986958,51.4621926876,Europe/Amsterdam,1,,
msw,msw,Maassluis West,4.23608243465,51.9256570988,Europe/Amsterdam,1,,
mss,mss,Maassluis,4.25324589014,51.9166365278,Europe/Amsterdam,1,,
hlg|0,,Harlingen,5.42478919029,53.170623958,,0,hlg,
kdr|0,,Dueren,6.49691,50.809201,,0,kdr,
ost|2,,Olst Spoor 2,6.11335515976,52.3353521834,,0,ost,2
ost|0,,Olst,6.11311376095,52.3357553592,,0,ost,
hglo,hglo,Hengelo Oost,6.81961297989,52.2689912086,Europe/Amsterdam,1,,
hmbh,hmbh,Helmond Brouwhuis,5.70053,51.471278,Europe/Amsterdam,1,,
enbe|0,,Muenster-Haeger,7.56262,52.022358,,0,enbe,
bdm|2,,Bedum Spoor 2,6.59219384193,53.3068072139,,0,bdm,2
bdm|0,,Bedum,6.59303069115,53.3067334897,,0,bdm,
bdm|1,,Bedum Spoor 1,6.5921831131,53.3068392679,,0,bdm,1
shl|0,,Schiphol,4.76122677326,52.3087869293,,0,shl,
ht|5b,,Hertogenbosch ('s) Spoor 5b,5.29333412647,51.6903897766,,0,ht,5b
asd|15a,,Amsterdam Centraal Spoor 15a,4.89993989468,52.3795976283,,0,asd,15a
asd|15b,,Amsterdam Centraal Spoor 15b,4.90175843239,52.3790049241,,0,asd,15b
ddzd|2,,Dordrecht Zuid Spoor 2,4.67165708542,51.7901398902,,0,ddzd,2
cas,cas,Castricum,4.65877175331,52.546051031,Europe/Amsterdam,1,,
flb,flb,Limburg Sud,8.09501,50.383239,Europe/Amsterdam,1,,
klp|2,,Veenendaal-De Klomp Spoor 2,5.57343184948,52.0458478657,,0,klp,2
klp|0,,Veenendaal-De Klomp,5.57376176119,52.0461068586,,0,klp,
klp|1,,Veenendaal-De Klomp Spoor 1,5.5734962225,52.0459616908,,0,klp,1
almm|2,,Almere Muziekwijk Spoor 2,5.19061,52.36757,,0,almm,2
almm|1,,Almere Muziekwijk Spoor 1,5.19046068192,52.3676535947,,0,almm,1
almm|0,,Almere Muziekwijk,5.19075572491,52.3675160247,,0,almm,
bzl|1,,Kapelle-Biezelinge Spoor 1,3.95646214485,51.4806145073,,0,bzl,1
bzl|0,,Kapelle-Biezelinge,3.95664989948,51.4807147327,,0,bzl,
bde|0,,Bunde,5.73676764965,50.896596251,,0,bde,
bde|1,,Bunde Spoor 1,5.73645114899,50.8971917354,,0,bde,1
kko|0,,Koblenz Hbf,7.58863,50.351088,,0,kko,
spm,spm,Sappemeer Oost,6.79581105709,53.159014018,Europe/Amsterdam,1,,
stola,stola,Stolberg Altstadt,6.23052,50.765158,Europe/Amsterdam,1,,
stolb,stolb,Stolberg Hbf,6.21886,50.794997,Europe/Amsterdam,1,,
utm|0,,Utrecht Maliebaan,5.13076007366,52.0880471862,,0,utm,
utm|2,,Utrecht Maliebaan Spoor 2,5.13141453266,52.0877439379,,0,utm,2
ed|3,,Ede-Wageningen Spoor 3,5.67249655724,52.0277129841,,0,ed,3
ed|1,,Ede-Wageningen Spoor 1,5.67163,52.028187,,0,ed,1
ed|0,,Ede-Wageningen,5.67220151424,52.0281783692,,0,ed,
ed|4,,Ede-Wageningen Spoor 4,5.67246437073,52.027643671,,0,ed,4
nsch|2,,Nieuweschans Spoor 2,7.1999502182,53.1845099512,,0,nsch,2
nsch|0,,Nieuweschans,7.20024526119,53.184834622,,0,nsch,
nsch|1,,Nieuweschans Spoor 1,7.19986438751,53.1846063884,,0,nsch,1
mas,mas,Maarssen,5.03282725811,52.1356842895,Europe/Amsterdam,1,,
dei|0,,Deinum,5.72801291943,53.1888751208,,0,dei,
munchh|0,,Muenchen Hbf,11.55841,48.140183,,0,munchh,
tp|0,,Plochingen,9.41059,48.713299,,0,tp,
est|1,,Elst Spoor 1,5.85500210524,51.9170004957,,0,est,1
est|0,,Elst,5.85459977388,51.9169078496,,0,est,
est|2,,Elst Spoor 2,5.85514426231,51.9169988413,,0,est,2
tg|2,,Tegelen Spoor 2,6.14338248968,51.3392585326,,0,tg,2
brn|3,,Baarn Spoor 3,5.28126955032,52.2082263297,,0,brn,3
brn|2,,Baarn Spoor 2,5.28135001659,52.2083200171,,0,brn,2
brn|0,,Baarn,5.28201520443,52.2083660389,,0,brn,
brn|4,,Baarn Spoor 4,5.28124541044,52.2081951005,,0,brn,4
sk,sk,Sneek,5.65191328526,53.0325296457,Europe/Amsterdam,1,,
wp|6,,Weesp Spoor 6,5.04360973835,52.3126536867,,0,wp,6
tl|2,,Tiel Spoor 2,5.42301356792,51.8896533301,,0,tl,2
hlgh|0,,Harlingen Haven,5.41177511215,53.1747976232,,0,hlgh,
sn,sn,Schinnen,5.87498992682,50.9388465849,Europe/Amsterdam,1,,
sm,sm,Swalmen,6.03306055069,51.2363554455,Europe/Amsterdam,1,,
sd,sd,Soestdijk,5.29981970787,52.1839020129,Europe/Amsterdam,1,,
ddrs,ddrs,Dordrecht Stadspolders,4.71666,51.802089,Europe/Amsterdam,1,,
ledn|1,,Leiden Centraal Spoor 1,4.48211207986,52.1657730188,,0,ledn,1
ledn|0,,Leiden Centraal,4.48233604431,52.1654579598,,0,ledn,
ledn|2,,Leiden Centraal Spoor 2,4.48204770684,52.1658018099,,0,ledn,2
ledn|5,,Leiden Centraal Spoor 5,4.48221132159,52.1662970152,,0,ledn,5
ledn|4,,Leiden Centraal Spoor 4,4.48233805597,52.1662336753,,0,ledn,4
ledn|9,,Leiden Centraal Spoor 9,4.48184654117,52.1664804537,,0,ledn,9
ww|0,,Winterswijk,6.71571493149,51.9678855715,,0,ww,
ww|1,,Winterswijk Spoor 1,6.71552,51.967729,,0,ww,1
wp|0,,Weesp,5.04463970661,52.3125651388,,0,wp,
vtn,vtn,Vleuten,5.00842452049,52.1026171549,Europe/Amsterdam,1,,
londs,londs,London St.Pancras,0.12645,51.531037,Europe/London,1,,
eseb,eseb,Selm-Beifang,7.45489,51.692988,Europe/Amsterdam,1,,
lg|2,,Landgraaf Spoor 2,6.02045416832,50.8966283938,,0,lg,2
esem,esem,Selm,7.45311,51.708034,Europe/Amsterdam,1,,
sk|2,,Sneek Spoor 2,5.6514787674,53.0325393235,,0,sk,2
amf|2b,,Amersfoort Spoor 2b,5.37303328514,52.1535005237,,0,amf,2b
kbw|2,,Koog Bloemwijk Spoor 2,4.80562269688,52.4577680351,,0,kbw,2
kbw|1,,Koog Bloemwijk Spoor 1,4.80577290058,52.4577729383,,0,kbw,1
kbw|0,,Koog Bloemwijk,4.80586141348,52.4575898858,,0,kbw,
kko,kko,Koblenz Hbf,7.58863,50.351088,Europe/Amsterdam,1,,
kkd,kkd,Koeln Deutz,6.9746,50.940906,Europe/Amsterdam,1,,
dvnk|1,,De Vink Spoor 1,4.45618785918,52.1472671338,,0,dvnk,1
dvnk|0,,De Vink,4.45682555437,52.1468795239,,0,dvnk,
dvnk|3,,De Vink Spoor 3,4.4563870132,52.1471819587,,0,dvnk,3
dvnk|2,,De Vink Spoor 2,4.45626832545,52.1472305126,,0,dvnk,2
dvnk|4,,De Vink Spoor 4,4.45647753775,52.1471461604,,0,dvnk,4
vp|2,,Velp Spoor 2,5.98071455956,51.9948894775,,0,vp,2
vp|0,,Velp,5.9808164835,51.9951867503,,0,vp,
vp|1,,Velp Spoor 1,5.98066091537,51.9949621444,,0,vp,1
hglo|2,,Hengelo Oost Spoor 2,6.8208360672,52.2693720098,,0,hglo,2
hglo|0,,Hengelo Oost,6.81948423386,52.2690437331,,0,hglo,
hglo|1,,Hengelo Oost Spoor 1,6.81861519814,52.2687023227,,0,hglo,1
wk|2,,Workum Spoor 2,5.45680135489,52.9722509327,,0,wk,2
dron,dron,Dronten,5.71999311447,52.5344196434,Europe/Amsterdam,1,,
wk|0,,Workum,5.45630514622,52.9722347803,,0,wk,
wk|1,,Workum Spoor 1,5.45676648617,52.9722719307,,0,wk,1
escht|0,,Eschweiler Talbahnhof,6.26306,50.814716,,0,escht,
ledn,ledn,Leiden Centraal,4.48206782341,52.1663529517,Europe/Amsterdam,1,,
em,em,Emmerich,6.25409,51.834329,Europe/Amsterdam,1,,
asn|3,,Assen Spoor 3,6.57124578953,52.9921992749,,0,asn,3
asn|2,,Assen Spoor 2,6.57117068768,52.9922057329,,0,asn,2
asn|1,,Assen Spoor 1,6.57076,52.992035,,0,asn,1
asn|0,,Assen,6.57060742378,52.992060429,,0,asn,
apdo|2,,Apeldoorn Osseveld Spoor 2,6.00606143475,52.2158077964,,0,apdo,2
ed,ed,Ede-Wageningen,5.67148804665,52.0281585657,Europe/Amsterdam,1,,
apdo|0,,Apeldoorn Osseveld,6.00629210472,52.2155678652,,0,apdo,
apdo|1,,Apeldoorn Osseveld Spoor 1,6.00615262985,52.2156927611,,0,apdo,1
ec,ec,Echt,5.87897032499,51.1005138636,Europe/Amsterdam,1,,
vh|2,,Voorhout Spoor 2,4.48456764221,52.2241306351,,0,vh,2
vh|0,,Voorhout,4.48426187038,52.2240681991,,0,vh,
vh|1,,Voorhout Spoor 1,4.4844147563,52.2241109185,,0,vh,1
vhp|2,,Vroomshoop Spoor 2,6.56951844692,52.4576078642,,0,vhp,2
vhp|1,,Vroomshoop Spoor 1,6.56965792179,52.457611133,,0,vhp,1
vhp|0,,Vroomshoop,6.56997442245,52.4571796495,,0,vhp,
es,es,Enschede,6.89025,52.222361,Europe/Amsterdam,1,,
geisl|0,,Geislingen,9.84186,48.620258,,0,geisl,
vl|6,,Venlo Spoor 6,6.17055058479,51.3655344092,,0,vl,6
bll,bll,Bloemendaal,4.6274971962,52.4039734714,Europe/Amsterdam,1,,
almp|0,,Almere Parkwijk,5.24539232254,52.3765390582,,0,almp,
zl|3a,,Zwolle Spoor 3a,6.0902184248,52.5054207502,,0,zl,3a
vl|3,,Venlo Spoor 3,6.17166638374,51.3644391841,,0,vl,3
vl|0,,Venlo,6.17190778255,51.3650286663,,0,vl,
vl|1,,Venlo Spoor 1,6.17191314697,51.3645195684,,0,vl,1
wc|2,,Wijchen Spoor 2,5.73042958975,51.8114737147,,0,wc,2
wc|0,,Wijchen,5.73037326336,51.8111387412,,0,wc,
wc|1,,Wijchen Spoor 1,5.73040813208,51.8115002471,,0,wc,1
vss|1,,Vlissingen Souburg Spoor 1,3.59522223473,51.4650936235,,0,vss,1
vss|0,,Vlissingen Souburg,3.59546899796,51.4647460557,,0,vss,
vss|2,,Vlissingen Souburg Spoor 2,3.59536170959,51.4650501777,,0,vss,2
gn|1b,,Groningen Spoor 1b,6.56642317772,53.2109063358,,0,gn,1b
gn|1a,,Groningen Spoor 1a,6.56274855137,53.21080032,,0,gn,1a
rlb,rlb,Rotterdam Lombardijen,4.53098058701,51.8804682307,Europe/Amsterdam,1,,
sbk|2,,Spaubeek Spoor 2,5.8498737216,50.9433389,,0,sbk,2
sbk|1,,Spaubeek Spoor 1,5.8499032259,50.9433743906,,0,sbk,1
sbk|0,,Spaubeek,5.84913343191,50.9432814389,,0,sbk,
utg|4b,,Uitgeest Spoor 4b,4.70238178968,52.5214991557,,0,utg,4b
vd|2,,Vorden Spoor 2,6.31765902042,52.1072563993,,0,vd,2
vd|0,,Vorden,6.31764292717,52.1069664606,,0,vd,
vd|1,,Vorden Spoor 1,6.31768584251,52.1072926415,,0,vd,1
edulh|0,,Duelmen,7.29581,51.827941,,0,edulh,
rsn|0,,Rijssen,6.51963472366,52.3114435165,,0,rsn,
flb|0,,Limburg Sud,8.09501,50.383239,,0,flb,
rsn|2,,Rijssen Spoor 2,6.51996999979,52.312030568,,0,rsn,2
rsn|3,,Rijssen Spoor 3,6.51995122433,52.3120551649,,0,rsn,3
rtst,rtst,Rotterdam Stadion,4.5201176405,51.894020064,Europe/Amsterdam,1,,
asd|14b,,Amsterdam Centraal Spoor 14b,4.90169942379,52.3789328822,,0,asd,14b
asd|14a,,Amsterdam Centraal Spoor 14a,4.89989697933,52.3795550587,,0,asd,14a
o|0,,Oss,5.530205369,51.7652072354,,0,o,
o|1,,Oss Spoor 1,5.53104221821,51.7652005955,,0,o,1
o|2,,Oss Spoor 2,5.53108513355,51.7651707158,,0,o,2
vndc,vndc,Veenendaal Centrum,5.54905861616,52.0200763466,Europe/Amsterdam,1,,
vndw,vndw,Veenendaal West,5.53156793118,52.0282674849,Europe/Amsterdam,1,,
lwc|1,,Leeuwarden Camminghaburen Spoor 1,5.84256738424,53.2021366596,,0,lwc,1
lwc|0,,Leeuwarden Camminghaburen,5.84238767624,53.2025849061,,0,lwc,
rtz|4,,Rotterdam Zuid Spoor 4,4.51042950153,51.9039901203,,0,rtz,4
rtz|1,,Rotterdam Zuid Spoor 1,4.51085865498,51.9041026515,,0,rtz,1
rtz|0,,Rotterdam Zuid,4.51126635075,51.9029144405,,0,rtz,
rtz|3,,Rotterdam Zuid Spoor 3,4.51062262058,51.9040232178,,0,rtz,3
rtz|2,,Rotterdam Zuid Spoor 2,4.51071381569,51.9040397665,,0,rtz,2
rsd|1a,,Roosendaal Spoor 1a,4.45839464664,51.5401696421,,0,rsd,1a
rsd|1b,,Roosendaal Spoor 1b,4.46033120155,51.5414007883,,0,rsd,1b
kbk|2,,Klarenbeek Spoor 2,6.08364164829,52.1782510137,,0,kbk,2
kbk|1,,Klarenbeek Spoor 1,6.08478426933,52.1777806129,,0,kbk,1
kbk|0,,Klarenbeek,6.08468770981,52.1780339062,,0,kbk,
kbry,kbry,Breyell,6.23999,51.295361,Europe/Amsterdam,1,,
dtch,dtch,Doetinchem De Huet,6.25997006893,51.9592321562,Europe/Amsterdam,1,,
ana,ana,Anna Paulowna,4.81146991253,52.8676984353,Europe/Amsterdam,1,,
hvsp|1,,Hilversum Sportpark Spoor 1,5.1871830225,52.2162054878,,0,hvsp,1
hvs|1,,Hilversum Spoor 1,5.18163084984,52.22616633,,0,hvs,1
hvs|2,,Hilversum Spoor 2,5.18183469772,52.2262123333,,0,hvs,2
hvs|3,,Hilversum Spoor 3,5.18195271492,52.2262419069,,0,hvs,3
krd|0,,Kerkrade Centrum,6.05764567852,50.8609565227,,0,krd,
krd|1,,Kerkrade Centrum Spoor 1,6.05726480484,50.8613154421,,0,krd,1
krd|2,,Kerkrade Centrum Spoor 2,6.0571628809,50.8613323721,,0,krd,2
btl,btl,Boxtel,5.3188097477,51.5850365697,Europe/Amsterdam,1,,
nm|3a,,Nijmegen Spoor 3a,5.85280001163,51.8440338507,,0,nm,3a
hgl|3a,,Hengelo Spoor 3a,6.79290890694,52.2619457958,,0,hgl,3a
hgl|3b,,Hengelo Spoor 3b,6.79573595524,52.2615813475,,0,hgl,3b
nm|3b,,Nijmegen Spoor 3b,5.85197925568,51.8424496542,,0,nm,3b
hagen|0,,Hagen Hbf,7.45939,51.361585,,0,hagen,
mcgb|0,,Moenchengladbach Hbf,6.44618,51.196582,,0,mcgb,
bonn|0,,Bonn Hbf,7.09708,50.732021,,0,bonn,
esn,esn,Essen (Belgie),4.45137798786,51.4626906725,Europe/Amsterdam,1,,
da|1a,,Daarlerveen Spoor 1a,6.57613277435,52.4410188555,,0,da,1a
da|1b,,Daarlerveen Spoor 1b,6.57565534115,52.4417644161,,0,da,1b
nm|35,,Nijmegen Spoor 35,5.85230648518,51.8422839401,,0,nm,35
gd|8,,Gouda Spoor 8,4.7056889534,52.0175492188,,0,gd,8
gd|0,,Gouda,4.70698177814,52.0169285568,,0,gd,
gd|3,,Gouda Spoor 3,4.70567822456,52.0172917112,,0,gd,3
gd|5,,Gouda Spoor 5,4.70567286015,52.0173676431,,0,gd,5
gd|4,,Gouda Spoor 4,4.70534563065,52.0173544375,,0,gd,4
asd|15,,Amsterdam Centraal Spoor 15,4.90093767643,52.3793291114,,0,asd,15
asd|14,,Amsterdam Centraal Spoor 14,4.9005,52.378686,,0,asd,14
asd|10,,Amsterdam Centraal Spoor 10,4.90057826042,52.3791228107,,0,asd,10
eprn,eprn,Preussen,7.53934,51.588875,Europe/Amsterdam,1,,
mrn,mrn,Maarn,5.37041008472,52.0643612491,Europe/Amsterdam,1,,
mrb,mrb,Marienberg,6.57406210899,52.5090123764,Europe/Amsterdam,1,,
ut|12b,,Utrecht Centraal Spoor 12b,5.11049330235,52.0887954095,,0,ut,12b
ut|12a,,Utrecht Centraal Spoor 12a,5.10855674744,52.0905126499,,0,ut,12a
bet|4,,Best Spoor 4,5.38842380047,51.5103650809,,0,bet,4
bet|0,,Best,5.38851499557,51.5096172129,,0,bet,
bet|1,,Best Spoor 1,5.38909971714,51.5105787553,,0,bet,1
bet|2,,Best Spoor 2,5.38881540298,51.5104852729,,0,bet,2
bet|3,,Best Spoor 3,5.38871347904,51.5104452089,,0,bet,3
rtn|1,,Rotterdam Noord Spoor 1,4.48164671659,51.9422245518,,0,rtn,1
rtn|0,,Rotterdam Noord,4.48105931282,51.9419963733,,0,rtn,
ypb|0,,Den Haag Ypenburg,4.38964292407,52.05572235,,0,ypb,
rtn|2,,Rotterdam Noord Spoor 2,4.48160380125,51.9423088784,,0,rtn,2
ut|15,,Utrecht Centraal Spoor 15,5.10922729969,52.0897216069,,0,ut,15
ut|14,,Utrecht Centraal Spoor 14,5.10932922363,52.0897413831,,0,ut,14
ut|12,,Utrecht Centraal Spoor 12,5.10957062244,52.089820488,,0,ut,12
ut|11,,Utrecht Centraal Spoor 11,5.10967254639,52.0898435602,,0,ut,11
zww|1,,Zwaagwesteinde Spoor 1,6.03550672531,53.2483327754,,0,zww,1
zww|0,,Zwaagwesteinde,6.03604853153,53.248977938,,0,zww,
zww|2,,Zwaagwesteinde Spoor 2,6.03552818298,53.248230062,,0,zww,2
ro|0,,Offenburg,7.94667,48.476438,,0,ro,
shl|4,,Schiphol Spoor 4,4.76211190224,52.3093444979,,0,shl,4
shl|3,,Schiphol Spoor 3,4.76218700409,52.3093215393,,0,shl,3
stola|0,,Stolberg Altstadt,6.23052,50.765158,,0,stola,
kzd|0,,Koog-Zaandijk,4.80489850044,52.4692677596,,0,kzd,
kzd|1,,Koog-Zaandijk Spoor 1,4.80510234833,52.4691582837,,0,kzd,1
kzd|2,,Koog-Zaandijk Spoor 2,4.80522036552,52.4691582837,,0,kzd,2
bl|2,,Beilen Spoor 2,6.52124941349,52.8549636835,,0,bl,2
bl|0,,Beilen,6.52080416679,52.8548632675,,0,bl,
bl|1,,Beilen Spoor 1,6.52112603188,52.8549734012,,0,bl,1
ssh,ssh,Sassenheim,4.52851295471,52.2176910471,Europe/Amsterdam,1,,
aml|4a,,Almelo Spoor 4a,6.6522860527,52.3591496494,,0,aml,4a
aml|4b,,Almelo Spoor 4b,6.654753685,52.3575312248,,0,aml,4b
bkl|2,,Breukelen Spoor 2,4.99068170786,52.1708737018,,0,bkl,2
bkl|3,,Breukelen Spoor 3,4.99055564404,52.1708720568,,0,bkl,3
bkl|0,,Breukelen,4.99028742313,52.1705331809,,0,bkl,
rtb|1,,Rotterdam Blaak Spoor 1,4.48954045773,51.9200097354,,0,rtb,1
rtb|0,,Rotterdam Blaak,4.48961555958,51.9198873184,,0,rtb,
rtb|3,,Rotterdam Blaak Spoor 3,4.48945663869,51.9199679648,,0,rtb,3
rtb|2,,Rotterdam Blaak Spoor 2,4.48951631784,51.919989884,,0,rtb,2
gp|1,,Geldrop Spoor 1,5.55053114891,51.4201451898,,0,gp,1
gp|0,,Geldrop,5.55119097233,51.420295727,,0,gp,
gp|2,,Geldrop Spoor 2,5.55043458939,51.4200849748,,0,gp,2
esd|1,,Enschede Drienerlo Spoor 1,6.83938086033,52.2371137773,,0,esd,1
esd|0,,Enschede Drienerlo,6.8393433094,52.2374784267,,0,esd,
esd|2,,Enschede Drienerlo Spoor 2,6.83932721615,52.237061215,,0,esd,2
bh|0,,Bad Bentheim,7.15791463852,52.3098823809,,0,bh,
mz|1,,Maarheeze Spoor 1,5.63049316406,51.3041379831,,0,mz,1
utg|4a,,Uitgeest Spoor 4a,4.70092266798,52.5222792576,,0,utg,4a
gbr|0,,Glanerbrug,6.9734698534,52.2188084705,,0,gbr,
gbr|1,,Glanerbrug Spoor 1,6.97386145592,52.218732881,,0,gbr,1
mz|2,,Maarheeze Spoor 2,5.63010692596,51.3040574928,,0,mz,2
rs|1,,Rosmalen Spoor 1,5.36921113729,51.7151094805,,0,rs,1
rs|0,,Rosmalen,5.36938548088,51.7153654003,,0,rs,
rs|2,,Rosmalen Spoor 2,5.36926478148,51.7150147566,,0,rs,2
bd|8,,Breda Spoor 8,4.78001832962,51.5951366918,,0,bd,8
bd|2,,Breda Spoor 2,4.78005,51.595065,,0,bd,2
bd|3,,Breda Spoor 3,4.77997004986,51.5955182561,,0,bd,3
bd|0,,Breda,4.78002905846,51.5948850909,,0,bd,
bd|6,,Breda Spoor 6,4.77997541428,51.5953116453,,0,bd,6
bd|7,,Breda Spoor 7,4.78000223637,51.5952483289,,0,bd,7
bd|4,,Breda Spoor 4,4.77997273207,51.5954849319,,0,bd,4
bd|5,,Breda Spoor 5,4.77997004986,51.5953483021,,0,bd,5
ahz|2,,Arnhem Zuid Spoor 2,5.85195243359,51.9551329349,,0,ahz,2
ahz|0,,Arnhem Zuid,5.85208117962,51.9549544119,,0,ahz,
ahz|1,,Arnhem Zuid Spoor 1,5.85178613663,51.955119711,,0,ahz,1
dvd|5,,Duivendrecht Spoor 5,4.93635892868,52.3238847176,,0,dvd,5
vdw|0,,Vlaardingen West,4.31480526924,51.9041580895,,0,vdw,
ws|2,,Winschoten Spoor 2,7.03495413065,53.1392425587,,0,ws,2
vdw|1,,Vlaardingen West Spoor 1,4.31433722377,51.9040414213,,0,vdw,1
vdw|2,,Vlaardingen West Spoor 2,4.31428894401,51.9039504034,,0,vdw,2
ws|1,,Winschoten Spoor 1,7.03498363495,53.1392940461,,0,ws,1
ws|0,,Winschoten,7.03441500664,53.1394613798,,0,ws,
ma|0,,Augsburg Hbf,10.8856,48.365473,,0,ma,
mannhe|0,,Mannheim Hbf,8.46986,49.479633,,0,mannhe,
apdo,apdo,Apeldoorn Osseveld,6.00641548634,52.2158570972,Europe/Amsterdam,1,,
hlgh,hlgh,Harlingen Haven,5.41134059429,53.1748747903,Europe/Amsterdam,1,,
apdm,apdm,Apeldoorn De Maten,6.00063800812,52.2051476843,Europe/Amsterdam,1,,
dvc|0,,Deventer Colmschate,6.2148553133,52.250324657,,0,dvc,
dvc|1,,Deventer Colmschate Spoor 1,6.21430277824,52.250364067,,0,dvc,1
dvc|2,,Deventer Colmschate Spoor 2,6.21435105801,52.2502425528,,0,dvc,2
hvs,hvs,Hilversum,5.18169522285,52.2263832024,Europe/Amsterdam,1,,
ashd|5,,Amsterdam Holendrecht Spoor 5,4.95980143547,52.2982672465,,0,ashd,5
ashd|2,,Amsterdam Holendrecht Spoor 2,4.95991945267,52.2983066139,,0,ashd,2
ashd|0,,Amsterdam Holendrecht,4.95888948441,52.2981786698,,0,ashd,
albert|0,,Albertville,6.38465,45.660264,,0,albert,
mars,mars,Marseille-St-Charles,5.38106918335,43.3033199718,Europe/Amsterdam,1,,
op|1,,Opheusden Spoor 1,5.63653081656,51.9261665506,,0,op,1
bmn,bmn,Brummen,6.14723145962,52.0911289946,Europe/Amsterdam,1,,
bmr,bmr,Boxmeer,5.93949437141,51.6443786278,Europe/Amsterdam,1,,
lkp|0,,Kapellen,4.43343,51.311031,,0,lkp,
gdm|3a,,Geldermalsen Spoor 3a,5.27116835117,51.8834120376,,0,gdm,3a
hdr,hdr,Den Helder,4.76063668728,52.9568211084,Europe/Amsterdam,1,,
gdm|3b,,Geldermalsen Spoor 3b,5.27162432671,51.8823557331,,0,gdm,3b
zp|1a,,Zutphen Spoor 1a,6.19292020798,52.1443398139,,0,zp,1a
zp|1b,,Zutphen Spoor 1b,6.19536101818,52.1450541734,,0,zp,1b
hdg,hdg,Hurdegaryp,5.93453228474,53.2187973494,Europe/Amsterdam,1,,
hde,hde,Harde ('t),5.8928963542,52.4091965174,Europe/Amsterdam,1,,
op|2,,Opheusden Spoor 2,5.63792288303,51.9259349823,,0,op,2
hdb,hdb,Hardenberg,6.62763118744,52.5723204212,Europe/Amsterdam,1,,
hann|0,,Hannover Hbf,9.74095,52.376726,,0,hann,
ndb|1,,Naarden-Bussum Spoor 1,5.15712618828,52.280748579,,0,ndb,1
ndb|0,,Naarden-Bussum,5.15794694424,52.2806796588,,0,ndb,
ndb|3,,Naarden-Bussum Spoor 3,5.15693843365,52.2807059141,,0,ndb,3
ndb|2,,Naarden-Bussum Spoor 2,5.15702426434,52.2807256056,,0,ndb,2
mas|0,,Maarssen,5.03241956234,52.1359411152,,0,mas,
mas|2,,Maarssen Spoor 2,5.03340125084,52.1357435571,,0,mas,2
mas|3,,Maarssen Spoor 3,5.03333419561,52.1357073381,,0,mas,3
nvdw|1,,Nijverdal West Spoor 1,6.45099163055,52.3671000364,,0,nvdw,1
nvdw|0,,Nijverdal West,6.45143151283,52.3671557201,,0,nvdw,
htn|2,,Houten Spoor 2,5.16750901937,52.0348681569,,0,htn,2
htn|1,,Houten Spoor 1,5.16764044762,52.0348945576,,0,htn,1
htn|0,,Houten,5.16794085503,52.0350232609,,0,htn,
elgd|0,,Legden,7.08846,52.035023,,0,elgd,
rtd|14a,,Rotterdam Centraal Spoor 14a,4.46990132332,51.9257166454,,0,rtd,14a
rtd|14b,,Rotterdam Centraal Spoor 14b,4.46721374989,51.9251840311,,0,rtd,14b
neuss,neuss,Neuss Hbf,6.68463,51.204862,Europe/Amsterdam,1,,
lut|2,,Geleen-Lutterade Spoor 2,5.82480847836,50.9755143687,,0,lut,2
lut|0,,Geleen-Lutterade,5.82398235798,50.9756596104,,0,lut,
lut|1,,Geleen-Lutterade Spoor 1,5.82466900349,50.9756021893,,0,lut,1
nwl|2,,Schiedam Nieuwland Spoor 2,4.38359722495,51.922909598,,0,nwl,2
nwl|0,,Schiedam Nieuwland,4.38383728266,51.9226184623,,0,nwl,
nwl|1,,Schiedam Nieuwland Spoor 1,4.38369244337,51.9228273027,,0,nwl,1
emte,emte,Metelen Land,7.25441,52.162414,Europe/Amsterdam,1,,
hdrz,hdrz,Den Helder Zuid,4.76434,52.932919,Europe/Amsterdam,1,,
rv|0,,Reuver,6.07892632484,51.2831990348,,0,rv,
rv|1,,Reuver Spoor 1,6.07935011387,51.2830178487,,0,rv,1
rv|2,,Reuver Spoor 2,6.0794198513,51.2829608086,,0,rv,2
bsd|2,,Beesd Spoor 2,5.1946502924,51.8994191308,,0,bsd,2
bsd|0,,Beesd,5.19578754902,51.8991477033,,0,bsd,
bsd|1,,Beesd Spoor 1,5.19466102123,51.8993926501,,0,bsd,1
munchh,munchh,Muenchen Hbf,11.55841,48.140183,Europe/Amsterdam,1,,
ck,ck,Cuijk,5.87428450584,51.7270580619,Europe/Amsterdam,1,,
gdr,gdr,Gaanderen,6.3485956192,51.9305231202,Europe/Amsterdam,1,,
eldh,eldh,Luedinghausen,7.43167,51.761816,Europe/Amsterdam,1,,
badenz,badenz,Baden,8.30773,47.477327,Europe/Amsterdam,1,,
gdg,gdg,Gouda Goverwelle,4.74246203899,52.0146604263,Europe/Amsterdam,1,,
gdk,gdk,Geerdijk,6.56677186489,52.4761837965,Europe/Amsterdam,1,,
gdm,gdm,Geldermalsen,5.27143657207,51.882627262,Europe/Amsterdam,1,,
hvl,hvl,Hoevelaken,5.45878887177,52.1664565985,Europe/Amsterdam,1,,
rtst|0,,Rotterdam Stadion,4.51966702938,51.8938181243,,0,rtst,
ddrs|2,,Dordrecht Stadspolders Spoor 2,4.71660554409,51.8018596493,,0,ddrs,2
ddrs|1,,Dordrecht Stadspolders Spoor 1,4.71661627293,51.8019210187,,0,ddrs,1
ddrs|0,,Dordrecht Stadspolders,4.7166967392,51.8021167366,,0,ddrs,
gvmw|1,,Den Haag Moerwijk Spoor 1,4.30837735534,52.0545917567,,0,gvmw,1
gvmw|0,,Den Haag Moerwijk,4.30740103126,52.0547558636,,0,gvmw,
gvmw|3,,Den Haag Moerwijk Spoor 3,4.30862143636,52.0545876334,,0,gvmw,3
gvmw|2,,Den Haag Moerwijk Spoor 2,4.30846989155,52.0545884581,,0,gvmw,2
gvmw|4,,Den Haag Moerwijk Spoor 4,4.30871665478,52.0545835101,,0,gvmw,4
vl|3a,,Venlo Spoor 3a,6.17237448692,51.3638530437,,0,vl,3a
fvs,fvs,Vise,5.69588,50.741848,Europe/Amsterdam,1,,
ah|6b,,Arnhem Spoor 6b,5.90088129044,51.9846488747,,0,ah,6b
aml,aml,Almelo,6.65620207787,52.3569415007,Europe/Amsterdam,1,,
lang|0,,Langerwehe,6.35535,50.817575,,0,lang,
ah|6a,,Arnhem Spoor 6a,5.89991033077,51.984787634,,0,ah,6a
dtz|2,,Delft Zuid Spoor 2,4.36469972134,51.990910786,,0,dtz,2
dtz|1,,Delft Zuid Spoor 1,4.36483919621,51.990940516,,0,dtz,1
dtz|0,,Delft Zuid,4.36424911022,51.990785259,,0,dtz,
amf,amf,Amersfoort,5.37398815155,52.1534182404,Europe/Amsterdam,1,,
hgl|2b,,Hengelo Spoor 2b,6.79577350616,52.2616962639,,0,hgl,2b
hgl|2a,,Hengelo Spoor 2a,6.79293036461,52.2620213118,,0,hgl,2a
amr,amr,Alkmaar,4.74080443382,52.6377769745,Europe/Amsterdam,1,,
eenp|0,,Ennepetal (Gevelsberg),7.3432,51.304434,,0,eenp,
rsw|1,,Rijswijk Spoor 1,4.3187212944,52.0399731083,,0,rsw,1
zlw|4,,Lage Zwaluwe Spoor 4,4.66365,51.690493,,0,zlw,4
rsw|3,,Rijswijk Spoor 3,4.31899487972,52.0401281946,,0,rsw,3
rsw|2,,Rijswijk Spoor 2,4.31884467602,52.040045702,,0,rsw,2
rsw|4,,Rijswijk Spoor 4,4.31908607483,52.0401710908,,0,rsw,4
asd|2a,,Amsterdam Centraal Spoor 2a,4.89927470684,52.379014748,,0,asd,2a
asd|2b,,Amsterdam Centraal Spoor 2b,4.90114688873,52.3783827399,,0,asd,2b
bsmz|1,,Bussum Zuid Spoor 1,5.16296803951,52.2654029812,,0,bsmz,1
olv|0,,Onze Lieve Vrouwe t. Nood,4.68719244003,52.5847566113,,0,olv,
fkth|0,,Kalmthout,4.4666236639,51.3910286682,,0,fkth,
nvdw,nvdw,Nijverdal West,6.45094871521,52.367136067,Europe/Amsterdam,1,,
uto,uto,Utrecht Overvecht,5.12517571449,52.1103072301,Europe/Amsterdam,1,,
sd|1,,Soestdijk Spoor 1,5.29992967844,52.1838806339,,0,sd,1
sd|0,,Soestdijk,5.29966145754,52.1839233919,,0,sd,
koln,koln,Koeln Hbf,6.98271,50.932523,Europe/Amsterdam,1,,
apn|2,,Alphen a/d Rijn Spoor 2,4.65726435184,52.1245866917,,0,apn,2
apn|3,,Alphen a/d Rijn Spoor 3,4.65733408928,52.1246262133,,0,apn,3
apn|0,,Alphen a/d Rijn,4.65782761574,52.1246657348,,0,apn,
dvn|1,,Duiven Spoor 1,6.0144969821,51.9434712458,,0,dvn,1
dvn|0,,Duiven,6.01451039314,51.9436349338,,0,dvn,
dvn|2,,Duiven Spoor 2,6.01442188025,51.943405109,,0,dvn,2
kmb,kmb,Montabaur,7.82565,50.444846,Europe/Amsterdam,1,,
kma,kma,Krommenie-Assendelft,4.76149231195,52.4943583305,Europe/Amsterdam,1,,
gvm,gvm,Den Haag Mariahoeve,4.36898857355,52.0905868095,Europe/Amsterdam,1,,
gvc,gvc,Den Haag Centraal,4.32405352592,52.0811312949,Europe/Amsterdam,1,,
kmw,kmw,Koudum-Molkwerum,5.41069,52.902818,Europe/Amsterdam,1,,
kmr,kmr,Klimmen-Ransdaal,5.89029729366,50.8665262336,Europe/Amsterdam,1,,
hde|0,,Harde ('t),5.89311093092,52.4094043137,,0,hde,
hde|1,,Harde ('t) Spoor 1,5.89304119349,52.4092259689,,0,hde,1
hde|2,,Harde ('t) Spoor 2,5.89316189289,52.4091588849,,0,hde,2
hde|3,,Harde ('t) Spoor 3,5.89319944382,52.4091376143,,0,hde,3
hm|1,,Helmond Spoor 1,5.66166579723,51.4755461578,,0,hm,1
hm|0,,Helmond,5.66175699234,51.475820137,,0,hm,
hm|2,,Helmond Spoor 2,5.66169261932,51.4754559448,,0,hm,2
twl|0,,Twello,6.10074877739,52.2380894541,,0,twl,
twl|1,,Twello Spoor 1,6.10068440437,52.238230712,,0,twl,1
twl|2,,Twello Spoor 2,6.10056638718,52.2383621142,,0,twl,2
rtb|4,,Rotterdam Blaak Spoor 4,4.48942512274,51.9199551441,,0,rtb,4
www|0,,Winterswijk West,6.70329093933,51.9748916966,,0,www,
www|1,,Winterswijk West Spoor 1,6.70401513577,51.9746008981,,0,www,1
bp|2,,Buitenpost Spoor 2,6.14467799664,53.2561575238,,0,bp,2
bp|0,,Buitenpost,6.14518225193,53.2564142591,,0,bp,
bp|1,,Buitenpost Spoor 1,6.14519834518,53.2563372387,,0,bp,1
nmd,nmd,Nijmegen Dukenburg,5.79487502575,51.8238792462,Europe/Amsterdam,1,,
nml,nml,Nijmegen Lent,5.85944652557,51.8641463089,Europe/Amsterdam,1,,
nmh,nmh,Nijmegen Heyendaal,5.86773186922,51.8267471869,Europe/Amsterdam,1,,
srn,srn,Susteren,5.86264371872,51.0607032406,Europe/Amsterdam,1,,
stm|2,,Stedum Spoor 2,6.68753564358,53.3263749012,,0,stm,2
stm|1,,Stedum Spoor 1,6.68756246567,53.3263524737,,0,stm,1
stm|0,,Stedum,6.6857868433,53.3258590652,,0,stm,
dzw,dzw,Delfzijl West,6.90654873848,53.332045482,Europe/Amsterdam,1,,
ow,ow,Oss West,5.50670385361,51.7583709192,Europe/Amsterdam,1,,
ot,ot,Oisterwijk,5.19344329834,51.581949927,Europe/Amsterdam,1,,
op,op,Opheusden,5.6371986866,51.9261615884,Europe/Amsterdam,1,,
st|1,,Soest Spoor 1,5.31020522118,52.1729282868,,0,st,1
st|0,,Soest,5.31058609486,52.1727111534,,0,st,
st|2,,Soest Spoor 2,5.31016230583,52.1729249969,,0,st,2
hze|2,,Heeze Spoor 2,5.5691832304,51.3849962425,,0,hze,2
hze|0,,Heeze,5.56950509548,51.3850732429,,0,hze,
hze|1,,Heeze Spoor 1,5.56965529919,51.3851033735,,0,hze,1
wadn,wadn,Waddinxveen Noord,4.64821457863,52.0553141522,Europe/Amsterdam,1,,
vdo|0,,Vlaardingen Oost,4.36140999198,51.9103245244,,0,vdo,
vdo|1,,Vlaardingen Oost Spoor 1,4.36172515154,51.9101325859,,0,vdo,1
vdo|2,,Vlaardingen Oost Spoor 2,4.36163127422,51.9101797433,,0,vdo,2
kmw|0,,Koudum-Molkwerum,5.41053056717,52.9027741551,,0,kmw,
kmw|1,,Koudum-Molkwerum Spoor 1,5.4107773304,52.9027288559,,0,kmw,1
amfs|1,,Amersfoort Schothorst Spoor 1,5.40391892195,52.1747212418,,0,amfs,1
amfs|0,,Amersfoort Schothorst,5.40439367294,52.174635708,,0,amfs,
amfs|3,,Amersfoort Schothorst Spoor 3,5.40378749371,52.1747919716,,0,amfs,3
amfs|2,,Amersfoort Schothorst Spoor 2,5.40372312069,52.1748248691,,0,amfs,2
ehv,ehv,Eindhoven,5.47994077206,51.4423758354,Europe/Amsterdam,1,,
ehw,ehw,Holtwick,7.12261,51.998474,Europe/Amsterdam,1,,
ehb,ehb,Eindhoven Beukenlaan,5.45702934265,51.4501458154,Europe/Amsterdam,1,,
arn|1,,Arnemuiden Spoor 1,3.66974473,51.5015150788,,0,arn,1
arn|2,,Arnemuiden Spoor 2,3.66973131895,51.5015902134,,0,arn,2
ekeren|0,,Ekeren,4.4297003746,51.2674466009,,0,ekeren,
zl|1a,,Zwolle Spoor 1a,6.0899502039,52.5056623779,,0,zl,1a
zl|1b,,Zwolle Spoor 1b,6.09281480312,52.5046370837,,0,zl,1b
wupph,wupph,Wuppertal Hbf,7.14935,51.254306,Europe/Amsterdam,1,,
enbe,enbe,Muenster-Haeger,7.56262,52.022358,Europe/Amsterdam,1,,
vdg|0,,Vlaardingen Centrum,4.34563726187,51.9037451986,,0,vdg,
vdg|1,,Vlaardingen Centrum Spoor 1,4.34439539909,51.9031734335,,0,vdg,1
vdg|2,,Vlaardingen Centrum Spoor 2,4.34434041381,51.9032925863,,0,vdg,2
kwba,kwba,Wuppertal-Barmen,7.19599,51.267076,Europe/Amsterdam,1,,
zl|10,,Zwolle Spoor 10,6.09130740166,52.50449341,,0,zl,10
marne,marne,Marne-la-Vallee-Chessy,2.78203010559,48.8679330374,Europe/Amsterdam,1,,
zl|14,,Zwolle Spoor 14,6.09204232693,52.5049766742,,0,zl,14
vhp,vhp,Vroomshoop,6.56962573528,52.4573594348,Europe/Amsterdam,1,,
asdz|1-2,,Amsterdam Zuid Spoor 1-2,4.87272083759,52.3386987591,,0,asdz,1-2
laa|6,,Den Haag Laan v NOI Spoor 6,4.34340029955,52.0788680691,,0,laa,6
laa|5,,Den Haag Laan v NOI Spoor 5,4.34330374002,52.0789430722,,0,laa,5
laa|4,,Den Haag Laan v NOI Spoor 4,4.34325546026,52.0789900522,,0,laa,4
laa|3,,Den Haag Laan v NOI Spoor 3,4.34315890074,52.0790749456,,0,laa,3
laa|0,,Den Haag Laan v NOI,4.34264928102,52.0791911586,,0,laa,
assp,assp,Amsterdam Science Park,4.95049953461,52.3523151697,Europe/Amsterdam,1,,
mtr|2,,Maastricht Randwyck Spoor 2,5.71749866009,50.8377936121,,0,mtr,2
mtr|3,,Maastricht Randwyck Spoor 3,5.71761131287,50.8378274893,,0,mtr,3
ac,ac,Abcoude,4.97645795345,52.2796589706,Europe/Amsterdam,1,,
mtr|1,,Maastricht Randwyck Spoor 1,5.71743965149,50.8377834489,,0,mtr,1
ah,ah,Arnhem,5.89922368526,51.9853459706,Europe/Amsterdam,1,,
rvs,rvs,Ravenstein,5.63749372959,51.7947783926,Europe/Amsterdam,1,,
aw,aw,Aachen West,6.07072,50.780327,Europe/Amsterdam,1,,
bnk|0,,Bunnik,5.19583046436,52.0634757502,,0,bnk,
bnk|1,,Bunnik Spoor 1,5.19525378942,52.0632465399,,0,bnk,1
vndw|1,,Veenendaal West Spoor 1,5.53149819374,52.0281915715,,0,vndw,1
vndw|0,,Veenendaal West,5.531873703,52.0277525915,,0,vndw,
vndw|2,,Veenendaal West Spoor 2,5.53143382072,52.0280694497,,0,vndw,2
zbm|0,,Zaltbommel,5.26292324066,51.8078220376,,0,zbm,
hwd,hwd,Heerhugowaard,4.8238670826,52.6705238747,Europe/Amsterdam,1,,
zwd|4,,Zwijndrecht Spoor 4,4.64135885239,51.8153340216,,0,zwd,4
vp,vp,Velp,5.98092913628,51.9950942656,Europe/Amsterdam,1,,
sm|0,,Swalmen,6.03363454342,51.2364091848,,0,sm,
sm|1,,Swalmen Spoor 1,6.03213250637,51.2357139271,,0,sm,1
sm|2,,Swalmen Spoor 2,6.03204131126,51.2358046135,,0,sm,2
zwd|1,,Zwijndrecht Spoor 1,4.6410664916,51.815184789,,0,zwd,1
ekz|2,,Enkhuizen Spoor 2,5.28805285692,52.6995486126,,0,ekz,2
ekz|1,,Enkhuizen Spoor 1,5.28803676367,52.6995941239,,0,ekz,1
ekz|0,,Enkhuizen,5.28827279806,52.6998606891,,0,ekz,
ht|4,,Hertogenbosch ('s) Spoor 4,5.29359161854,51.6903731493,,0,ht,4
basels|0,,Basel SBB,7.58899,47.547348,,0,basels,
ht|6,,Hertogenbosch ('s) Spoor 6,5.29330193996,51.6905261202,,0,ht,6
ht|7,,Hertogenbosch ('s) Spoor 7,5.29320538044,51.6904263566,,0,ht,7
ht|0,,Hertogenbosch ('s),5.29590368271,51.6903232673,,0,ht,
ht|1,,Hertogenbosch ('s) Spoor 1,5.29400467873,51.6902800363,,0,ht,1
ht|3,,Hertogenbosch ('s) Spoor 3,5.29370427132,51.6903664983,,0,ht,3
alm,alm,Almere Centrum,5.21760463715,52.3750162436,Europe/Amsterdam,1,,
edc,edc,Ede Centrum,5.6683498621,52.0433914829,Europe/Amsterdam,1,,
vndc|1,,Veenendaal Centrum Spoor 1,5.54896742105,52.0200070217,,0,vndc,1
vndc|0,,Veenendaal Centrum,5.54932951927,52.0202067432,,0,vndc,
vndc|2,,Veenendaal Centrum Spoor 2,5.54883599281,52.0199558533,,0,vndc,2
rb|0,,Rilland-Bath,4.16135072708,51.422868164,,0,rb,
rb|1,,Rilland-Bath Spoor 1,4.16200518608,51.4227745017,,0,rb,1
uhz|0,,Uithuizen,6.67359352112,53.4095638299,,0,uhz,
uhz|1,,Uithuizen Spoor 1,6.67341649532,53.4096917369,,0,uhz,1
nm|1b,,Nijmegen Spoor 1b,5.85226356983,51.8424098829,,0,nm,1b
nm|1a,,Nijmegen Spoor 1a,5.85304677486,51.8440139658,,0,nm,1a
gvc|3,,Den Haag Centraal Spoor 3,4.32576611638,52.0794524308,,0,gvc,3
ddzd,ddzd,Dordrecht Zuid,4.67181265354,51.7906840597,Europe/Amsterdam,1,,
gvc|2,,Den Haag Centraal Spoor 2,4.32566553354,52.0794301774,,0,gvc,2
amri|2,,Almelo de Riet Spoor 2,6.66723668575,52.3417140659,,0,amri,2
amri|1,,Almelo de Riet Spoor 1,6.66599750519,52.3425071886,,0,amri,1
tu,tu,Ulm Hbf,9.98214,48.39905,Europe/Amsterdam,1,,
ts,ts,Stuttgart Hbf,9.18163,48.784052,Europe/Amsterdam,1,,
tp,tp,Plochingen,9.41059,48.713299,Europe/Amsterdam,1,,
tl,tl,Tiel,5.42323887348,51.88957056,Europe/Amsterdam,1,,
ddr|0,,Dordrecht,4.66770350933,51.8077756021,,0,ddr,
tg,tg,Tegelen,6.14325374365,51.3393406368,Europe/Amsterdam,1,,
tb,tb,Tilburg,5.08345663548,51.5605476622,Europe/Amsterdam,1,,
na|2,,Nieuw Amsterdam Spoor 2,6.84896707535,52.7186900519,,0,na,2
na|1,,Nieuw Amsterdam Spoor 1,6.84886515141,52.7187095481,,0,na,1
na|0,,Nieuw Amsterdam,6.84911191463,52.718508086,,0,na,
gvc|5,,Den Haag Centraal Spoor 5,4.3259806931,52.0795266088,,0,gvc,5
ddr|4,,Dordrecht Spoor 4,4.66765522957,51.8072051039,,0,ddr,4
ssh|2,,Sassenheim Spoor 2,4.52855050564,52.2176187423,,0,ssh,2
ssh|1,,Sassenheim Spoor 1,4.52845394611,52.217769925,,0,ssh,1
ssh|0,,Sassenheim,4.5287168026,52.2175793032,,0,ssh,
minden,minden,Minden (Westf.),8.9344650507,52.2904390073,Europe/Amsterdam,1,,
gvc|8,,Den Haag Centraal Spoor 8,4.32631060481,52.0796576562,,0,gvc,8
almb,almb,Almere Buiten,5.27793824673,52.3941540419,Europe/Amsterdam,1,,
almm,almm,Almere Muziekwijk,5.19068598747,52.3677060023,Europe/Amsterdam,1,,
almo,almo,Almere Oostvaarders,5.30027031898,52.4031487234,Europe/Amsterdam,1,,
wsm,wsm,Winsum,6.51989758015,53.3301361502,Europe/Amsterdam,1,,
rf|0,,Freiburg (Breisgau) Hbf,7.84131,47.997921,,0,rf,
almp,almp,Almere Parkwijk,5.24464130402,52.3767355466,Europe/Amsterdam,1,,
htnc,htnc,Houten Castellum,5.17889499664,52.0185132087,Europe/Amsterdam,1,,
dmn|0,,Diemen,4.96675908566,52.3451584746,,0,dmn,
dmn|1,,Diemen Spoor 1,4.96634602547,52.345620549,,0,dmn,1
dmn|2,,Diemen Spoor 2,4.96636748314,52.3456467658,,0,dmn,2
viers,viers,Viersen,6.40427,51.255028,Europe/Amsterdam,1,,
gn,gn,Groningen,6.56407356262,53.2109352492,Europe/Amsterdam,1,,
gz|3,,Gilze-Rijen Spoor 3,4.92526531219,51.5838199375,,0,gz,3
mmlh,mmlh,Mook Molenhoek,5.87913930416,51.7662563307,Europe/Amsterdam,1,,
fffm,fffm,Frankfurt (M) Hbf,8.66383,50.10712,Europe/Amsterdam,1,,
nm|4,,Nijmegen Spoor 4,5.85226356983,51.8431622181,,0,nm,4
nm|3,,Nijmegen Spoor 3,5.85237622261,51.8431357043,,0,nm,3
nm|1,,Nijmegen Spoor 1,5.85266590118,51.8431655324,,0,nm,1
nm|0,,Nijmegen,5.85347592831,51.8426750245,,0,nm,
etn|2,,Etten-Leur Spoor 2,4.63668644428,51.5753259376,,0,etn,2
etn|0,,Etten-Leur,4.63677495718,51.5750225511,,0,etn,
etn|1,,Etten-Leur Spoor 1,4.6367803216,51.575237589,,0,etn,1
hmbh|1,,Helmond Brouwhuis Spoor 1,5.70182919502,51.4704805867,,0,hmbh,1
odz|0,,Oldenzaal,6.93365514278,52.3065729848,,0,odz,
odz|1,,Oldenzaal Spoor 1,6.93384826183,52.3063401042,,0,odz,1
odz|2,,Oldenzaal Spoor 2,6.93385362625,52.3062777839,,0,odz,2
hmbh|2,,Helmond Brouwhuis Spoor 2,5.7018828392,51.4705841759,,0,hmbh,2
basels,basels,Basel SBB,7.58899,47.547348,Europe/Amsterdam,1,,
asdm|9,,Amsterdam Muiderpoort Spoor 9,4.93040978909,52.3605092113,,0,asdm,9
asdm|8,,Amsterdam Muiderpoort Spoor 8,4.93062436581,52.3604731752,,0,asdm,8
hamm|0,,Hamm (Westf.),7.80782,51.678039,,0,hamm,
kzd,kzd,Koog-Zaandijk,4.80516135693,52.4691615516,Europe/Amsterdam,1,,
vlb|1,,Vierlingsbeek Spoor 1,5.99693119526,51.592398999,,0,vlb,1
vlb|0,,Vierlingsbeek,5.99758565426,51.5919457558,,0,vlb,
vlb|2,,Vierlingsbeek Spoor 2,5.99719941616,51.5915958223,,0,vlb,2
baselb,baselb,Basel Bad Bf,7.60778,47.567364,Europe/Amsterdam,1,,
rm|1,,Roermond Spoor 1,5.99410414696,51.1928866371,,0,rm,1
pmo|0,,Purmerend Overwhere,4.9676656723,52.5111492547,,0,pmo,
ww|1a,,Winterswijk Spoor 1a,6.71475470066,51.9681797186,,0,ww,1a
ww|1b,,Winterswijk Spoor 1b,6.71622991562,51.9670956613,,0,ww,1b
sdtb|1,,Sliedrecht Baanhoek Spoor 1,4.74210262299,51.828418134,,0,sdtb,1
sdtb|0,,Sliedrecht Baanhoek,4.74238157272,51.828418134,,0,sdtb,
esrt,esrt,Schwerte (Ruhr),7.55917,51.442219,Europe/Amsterdam,1,,
ztm|3,,Zoetermeer Spoor 3,4.4772157073,52.047545314,,0,ztm,3
ztm|0,,Zoetermeer,4.47778701782,52.0465093668,,0,ztm,
eghm|0,,Eygelshoven Markt,6.05816602707,50.8961614749,,0,eghm,
vb,vb,Voorburg,4.35929372907,52.0666886919,Europe/Amsterdam,1,,
ztm|4,,Zoetermeer Spoor 4,4.47723314166,52.047642639,,0,ztm,4
vk|2,,Valkenburg Spoor 2,5.83275854588,50.8694107099,,0,vk,2
ahp|1,,Arnhem Velperpoort Spoor 1,5.91995447874,51.9851642642,,0,ahp,1
emnz|0,,Emmen Zuid,6.87474310398,52.7490157426,,0,emnz,
emnz|1,,Emmen Zuid Spoor 1,6.8743622303,52.7488274091,,0,emnz,1
twl,twl,Twello,6.10065221786,52.2383161234,Europe/Amsterdam,1,,
vwd|2,,Veenwouden Spoor 2,5.99009692669,53.2351385115,,0,vwd,2
vwd|0,,Veenwouden,5.98946392536,53.2352926285,,0,vwd,
vwd|1,,Veenwouden Spoor 1,5.99006474018,53.2351770408,,0,vwd,1
bsk|0,,Boskoop,4.64702367783,52.077333362,,0,bsk,
ehzw|0,,Holzwickede,7.62052,51.50508,,0,ehzw,
vl,vl,Venlo,6.17127478123,51.3651057003,Europe/Amsterdam,1,,
obd|0,,Obdam,4.90924581885,52.678092067,,0,obd,
obd|1,,Obdam Spoor 1,4.90877509117,52.6780156354,,0,obd,1
obd|2,,Obdam Spoor 2,4.90875899792,52.6779883965,,0,obd,2
gn|2a,,Groningen Spoor 2a,6.56358003616,53.2107553436,,0,gn,2a
amri,amri,Almelo de Riet,6.66659832001,52.3422351688,Europe/Amsterdam,1,,
luik,luik,Liege-Guillemins,5.56723594666,50.6240657216,Europe/Amsterdam,1,,
dei,dei,Deinum,5.72818994522,53.188775479,Europe/Amsterdam,1,,
vs,vs,Vlissingen,3.5955709219,51.4441278741,Europe/Amsterdam,1,,
klp,klp,Veenendaal-De Klomp,5.57396560907,52.0459352966,Europe/Amsterdam,1,,
hbzm|1,,Hardinxveld Blauwe Zoom Spoor 1,4.81545165181,51.8296116297,,0,hbzm,1
hbzm|0,,Hardinxveld Blauwe Zoom,4.81544494629,51.8296621868,,0,hbzm,
ecmf|0,,Coesfeld (Westf),7.16424,51.939058,,0,ecmf,
duisb,duisb,Duisburg Hbf,6.77474,51.430006,Europe/Amsterdam,1,,
munst,munst,Muenster (Westf) Hbf,7.63584,51.956874,Europe/Amsterdam,1,,
ltn|2,,Lunteren Spoor 2,5.62438309193,52.0851135023,,0,ltn,2
ltn|1,,Lunteren Spoor 1,5.62425971031,52.0850904277,,0,ltn,1
ltn|0,,Lunteren,5.62385201454,52.085067353,,0,ltn,
eghm,eghm,Eygelshoven Markt,6.05794072151,50.8961411739,Europe/Amsterdam,1,,
bkf,bkf,Bovenkarspel Flora,5.25372862816,52.6960944917,Europe/Amsterdam,1,,
bkg,bkg,Bovenkarspel-Grootebroek,5.23744627833,52.6950976222,Europe/Amsterdam,1,,
bkl,bkl,Breukelen,4.99062001705,52.1705989823,Europe/Amsterdam,1,,
tl|3,,Tiel Spoor 3,5.42294383049,51.8897294785,,0,tl,3
fn,fn,Franeker,5.54953336716,53.1824911512,Europe/Amsterdam,1,,
egh,egh,Eygelshoven,6.045768857,50.8900504954,Europe/Amsterdam,1,,
hfd,hfd,Hoofddorp,4.69853281975,52.2927456272,Europe/Amsterdam,1,,
hd|0,,Harderwijk,5.61964899302,52.3377498782,,0,hd,
hd|1,,Harderwijk Spoor 1,5.61984479427,52.3374925788,,0,hd,1
hd|2,,Harderwijk Spoor 2,5.61983138323,52.3375597718,,0,hd,2
ed|1b,,Ede-Wageningen Spoor 1b,5.67374646664,52.027670076,,0,ed,1b
ed|1a,,Ede-Wageningen Spoor 1a,5.67089259624,52.0281783692,,0,ed,1a
brusz|0,,Brussel-Zuid/Midi,4.33547973633,50.835215481,,0,brusz,
hze,hze,Heeze,5.56961238384,51.3850330688,Europe/Amsterdam,1,,
ebgo|0,,Borghorst (Westf),7.39616,52.119178,,0,ebgo,
eahs,eahs,Ahaus,7.01669,52.081615,Europe/Amsterdam,1,,
gdr|0,,Gaanderen,6.34850978851,51.9305628136,,0,gdr,
gdr|1,,Gaanderen Spoor 1,6.34878873825,51.9306157382,,0,gdr,1
uhm,uhm,Uithuizermeeden,6.72040879726,53.4140627285,Europe/Amsterdam,1,,
hvsn|2,,Hilversum Noord Spoor 2,5.17409920692,52.2378792091,,0,hvsn,2
hvsn|1,,Hilversum Noord Spoor 1,5.17391145229,52.2378266477,,0,hvsn,1
hvsn|0,,Hilversum Noord,5.17448544502,52.2377708011,,0,hvsn,
hdrz|2,,Den Helder Zuid Spoor 2,4.7638875246,52.9329005439,,0,hdrz,2
hdrz|0,,Den Helder Zuid,4.76400017738,52.9327776745,,0,hdrz,
hdrz|1,,Den Helder Zuid Spoor 1,4.7640645504,52.9329134775,,0,hdrz,1
uhz,uhz,Uithuizen,6.67419433594,53.4095606322,Europe/Amsterdam,1,,
ltv|2,,Lichtenvoorde-Groenlo Spoor 2,6.59557878971,52.0122502052,,0,ltv,2
ltv|1,,Lichtenvoorde-Groenlo Spoor 1,6.59549832344,52.0121775664,,0,ltv,1
ltv|0,,Lichtenvoorde-Groenlo,6.59516572952,52.0120454955,,0,ltv,
hnk|0,,Hoorn Kersenboogerd,5.08528590202,52.6533529528,,0,hnk,
hnk|1,,Hoorn Kersenboogerd Spoor 1,5.08482992649,52.6533643427,,0,hnk,1
hnk|2,,Hoorn Kersenboogerd Spoor 2,5.08492648602,52.6532748508,,0,hnk,2
tb|2,,Tilburg Spoor 2,5.08362293243,51.5606477118,,0,tb,2
tb|3,,Tilburg Spoor 3,5.08363366127,51.5606977365,,0,tb,3
tb|0,,Tilburg,5.08324205875,51.5602475121,,0,tb,
tb|1,,Tilburg Spoor 1,5.08364439011,51.5605043073,,0,tb,1
gz|0,,Gilze-Rijen,4.9239563942,51.5842799283,,0,gz,
kpn|0,,Kampen,5.92182397842,52.5600959418,,0,kpn,
bv|5,,Beverwijk Spoor 5,4.65625315905,52.4784692971,,0,bv,5
kohl|0,,Kohlscheid,6.0746884346,50.8322814555,,0,kohl,
uto|3,,Utrecht Overvecht Spoor 3,5.12533664703,52.1100535513,,0,uto,3
uto|2,,Utrecht Overvecht Spoor 2,5.12536346912,52.1100074277,,0,uto,2
uto|1,,Utrecht Overvecht Spoor 1,5.12540638447,52.1099217695,,0,uto,1
uto|0,,Utrecht Overvecht,5.12525618076,52.1104554834,,0,uto,
gd|11,,Gouda Spoor 11,4.70566749573,52.017760506,,0,gd,11
gd|10,,Gouda Spoor 10,4.70569968224,52.0176119448,,0,gd,10
vl|1a,,Venlo Spoor 1a,6.17258906364,51.3639434772,,0,vl,1a
ass,ass,Amsterdam Sloterdijk,4.83716011047,52.3885625372,Europe/Amsterdam,1,,
asb,asb,Amsterdam Bijlmer ArenA,4.94710922241,52.3122043862,Europe/Amsterdam,1,,
asa,asa,Amsterdam Amstel,4.91886556149,52.346741305,Europe/Amsterdam,1,,
lls|1,,Lelystad Centrum Spoor 1,5.47246545553,52.5078973712,,0,lls,1
eghm|1,,Eygelshoven Markt Spoor 1,6.05776369572,50.8961174895,,0,eghm,1
asd,asd,Amsterdam Centraal,4.90110933781,52.3788461042,Europe/Amsterdam,1,,
ahp|0,,Arnhem Velperpoort,5.92013418674,51.9848437983,,0,ahp,
sbk,sbk,Spaubeek,5.8493694663,50.9433338299,Europe/Amsterdam,1,,
ahp|2,,Arnhem Velperpoort Spoor 2,5.91991424561,51.9850519362,,0,ahp,2
utg|4,,Uitgeest Spoor 4,4.70164954662,52.5218941044,,0,utg,4
utg|3,,Uitgeest Spoor 3,4.70173537731,52.5219495928,,0,utg,3
asn,asn,Assen,6.57095074654,52.9922606253,Europe/Amsterdam,1,,
utg|0,,Uitgeest,4.70252126455,52.5219120565,,0,utg,
srn|0,,Susteren,5.86239159107,51.0607740424,,0,srn,
bdg|0,,Bodegraven,4.74639415741,52.0817477691,,0,bdg,
bdg|1,,Bodegraven Spoor 1,4.74583625793,52.081612607,,0,bdg,1
bdg|2,,Bodegraven Spoor 2,4.74578797817,52.0814972245,,0,bdg,2
kw|2,,Kropswolde Spoor 2,6.72356843948,53.1614520443,,0,kw,2
kw|0,,Kropswolde,6.72267258167,53.1614938562,,0,kw,
kw|1,,Kropswolde Spoor 1,6.72153532505,53.1618894592,,0,kw,1
hlds|2,,Hoek van Holland Strand Spoor 2,4.11948412657,51.981724918,,0,hlds,2
asd|4b,,Amsterdam Centraal Spoor 4b,4.90130245686,52.3785071774,,0,asd,4b
asd|4a,,Amsterdam Centraal Spoor 4a,4.8995000124,52.379145733,,0,asd,4a
did|2,,Didam Spoor 2,6.13275021315,51.9333627672,,0,did,2
odz,odz,Oldenzaal,6.93367660046,52.3064221046,Europe/Amsterdam,1,,
odb|0,,Oudenbosch,4.53311562538,51.5879630199,,0,odb,
odb|1,,Oudenbosch Spoor 1,4.53313708305,51.5877813722,,0,odb,1
odb|2,,Oudenbosch Spoor 2,4.53324168921,51.5877547082,,0,odb,2
odb|3,,Oudenbosch Spoor 3,4.53327655792,51.5877180453,,0,odb,3
lls|2,,Lelystad Centrum Spoor 2,5.47264248133,52.5079071664,,0,lls,2
lls|3,,Lelystad Centrum Spoor 3,5.47280341387,52.5079071664,,0,lls,3
lls|0,,Lelystad Centrum,5.47221332788,52.5081242925,,0,lls,
hwzb,hwzb,Halfweg-Zwanenburg,4.75164,52.384722,Europe/Amsterdam,1,,
srn|2,,Susteren Spoor 2,5.86307823658,51.0610167907,,0,srn,2
utl|2,,Utrecht Lunetten Spoor 2,5.14365613461,52.065964007,,0,utl,2
lls|4,,Lelystad Centrum Spoor 4,5.47295898199,52.5079055338,,0,lls,4
srn|1,,Susteren Spoor 1,5.86293339729,51.0612055941,,0,srn,1
akm|0,,Akkrum,5.84272027016,53.0475664231,,0,akm,
aixtgv,aixtgv,Aix-en Provence TGV,5.31722,43.455,Europe/Amsterdam,1,,
akm|2,,Akkrum Spoor 2,5.84346055984,53.0470891457,,0,akm,2
akm|3,,Akkrum Spoor 3,5.8435356617,53.0470955955,,0,akm,3
fn|0,,Franeker,5.54851680994,53.1824606113,,0,fn,
sda|2,,Scheemda Spoor 2,6.97817444801,53.1653307295,,0,sda,2
sda|1,,Scheemda Spoor 1,6.97814226151,53.1653178654,,0,sda,1
sda|0,,Scheemda,6.97846412659,53.1654465057,,0,sda,
asch,asch,Aachen Schanz,6.07382,50.769702,Europe/Amsterdam,1,,
rat|0,,Raalte,6.27824127674,52.3909949943,,0,rat,
rat|1,,Raalte Spoor 1,6.27807497978,52.3915024213,,0,rat,1
rat|2,,Raalte Spoor 2,6.27805352211,52.3915024213,,0,rat,2
hmh|2,,Helmond 't Hout Spoor 2,5.63068091869,51.4679158433,,0,hmh,2
hmh|0,,Helmond 't Hout,5.6305038929,51.4680595396,,0,hmh,
hmh|1,,Helmond 't Hout Spoor 1,5.63073992729,51.4678339696,,0,hmh,1
sdm|3,,Schiedam Centrum Spoor 3,4.40957039595,51.9219021941,,0,sdm,3
sdm|2,,Schiedam Centrum Spoor 2,4.40953284502,51.9218310629,,0,sdm,2
sdm|1,,Schiedam Centrum Spoor 1,4.40944701433,51.9217202304,,0,sdm,1
sdm|0,,Schiedam Centrum,4.40916001797,51.9214026192,,0,sdm,
sdm|5,,Schiedam Centrum Spoor 5,4.40963745117,51.9220494187,,0,sdm,5
dtc,dtc,Doetinchem,6.29611819983,51.9585098609,Europe/Amsterdam,1,,
stm,stm,Stedum,6.68717086315,53.3262018886,Europe/Amsterdam,1,,
swk|2,,Steenwijk Spoor 2,6.11621439457,52.7912143881,,0,swk,2
sog|0,,Schin op Geul,5.87205290794,50.8560532721,,0,sog,
sog|1,,Schin op Geul Spoor 1,5.87155401707,50.8561921144,,0,sog,1
sog|2,,Schin op Geul Spoor 2,5.87153255939,50.8562767741,,0,sog,2
dtz,dtz,Delft Zuid,4.36479359865,51.9908562809,Europe/Amsterdam,1,,
stv,stv,Stavoren,5.36007285118,52.8865572658,Europe/Amsterdam,1,,
tbg|0,,Terborg,6.36401295662,51.9224712395,,0,tbg,
tbg|1,,Terborg Spoor 1,6.36434286833,51.9226151539,,0,tbg,1
tbg|2,,Terborg Spoor 2,6.36429190636,51.9225969578,,0,tbg,2
aime,aime,Aime-la-Plagne,6.6476,45.549796,Europe/Amsterdam,1,,
stz,stz,Soest Zuid,5.30300885439,52.1651782712,Europe/Amsterdam,1,,
apdm|0,,Apeldoorn De Maten,6.00055754185,52.205256172,,0,apdm,
apdm|1,,Apeldoorn De Maten Spoor 1,6.00086867809,52.2051049467,,0,apdm,1
munst|0,,Muenster (Westf) Hbf,7.63584,51.956874,,0,munst,
bhf,bhf,Berlin Ostbahnhof,13.43461,52.511013,Europe/Amsterdam,1,,
edulh,edulh,Duelmen,7.29581,51.827941,Europe/Amsterdam,1,,
bhv,bhv,Bilthoven,5.20533084869,52.130412452,Europe/Amsterdam,1,,
hgz,hgz,Hoogezand-Sappemeer,6.77106499672,53.1598342138,Europe/Amsterdam,1,,
hgv,hgv,Hoogeveen,6.47298038006,52.7335209628,Europe/Amsterdam,1,,
hgl,hgl,Hengelo,6.79359555244,52.262146077,Europe/Amsterdam,1,,
hlm|6b,,Haarlem Spoor 6b,4.63700830936,52.3882940748,,0,hlm,6b
ehb|4,,Eindhoven Beukenlaan Spoor 4,5.45627832413,51.4507208216,,0,ehb,4
dron|0,,Dronten,5.72027206421,52.5339236504,,0,dron,
ehb|2,,Eindhoven Beukenlaan Spoor 2,5.45648217201,51.4507943684,,0,ehb,2
ehb|3,,Eindhoven Beukenlaan Spoor 3,5.45642852783,51.4507609381,,0,ehb,3
ehb|0,,Eindhoven Beukenlaan,5.45665919781,51.4498516234,,0,ehb,
dron|1,,Dronten Spoor 1,5.72046518326,52.5342499623,,0,dron,1
bde,bde,Bunde,5.73650747538,50.8968973776,Europe/Amsterdam,1,,
bdg,bdg,Bodegraven,4.74578797817,52.0817082095,Europe/Amsterdam,1,,
ut|11b,,Utrecht Centraal Spoor 11b,5.11059522629,52.0888184822,,0,ut,11b
ut|11a,,Utrecht Centraal Spoor 11a,5.10891616344,52.0906378971,,0,ut,11a
rhn,rhn,Rhenen,5.5783188343,51.9585875454,Europe/Amsterdam,1,,
ebok|0,,Bork (Westf),7.45658,51.669851,,0,ebok,
vtn|1,,Vleuten Spoor 1,5.00801682472,52.1030257441,,0,vtn,1
vtn|0,,Vleuten,5.00862836838,52.1023864981,,0,vtn,
kn,kn,Kaldenkirchen,6.2027,51.32718,Europe/Amsterdam,1,,
kw,kw,Kropswolde,6.72221124172,53.1618315663,Europe/Amsterdam,1,,
dmnz,dmnz,Diemen Zuid,4.95590686798,52.3303859358,Europe/Amsterdam,1,,
bzl,bzl,Kapelle-Biezelinge,3.95702004433,51.4804875549,Europe/Amsterdam,1,,
rtd,rtd,Rotterdam Centraal,4.4697457552,51.9243834438,Europe/Amsterdam,1,,
rta,rta,Rotterdam Alexander,4.55200374126,51.9516764051,Europe/Amsterdam,1,,
pt|1,,Putten Spoor 1,5.57586729527,52.2653931321,,0,pt,1
pt|2,,Putten Spoor 2,5.57571709156,52.2654686421,,0,pt,2
rtb,rtb,Rotterdam Blaak,4.48890209198,51.9202727655,Europe/Amsterdam,1,,
ehv|2,,Eindhoven Spoor 2,5.48043966293,51.4429409087,,0,ehv,2
ehv|3,,Eindhoven Spoor 3,5.48040747643,51.4430779964,,0,ehv,3
ehv|0,,Eindhoven,5.47998905182,51.4420882807,,0,ehv,
ehv|1,,Eindhoven Spoor 1,5.48048257828,51.4428472875,,0,ehv,1
ehv|6,,Eindhoven Spoor 6,5.48032164574,51.4433521706,,0,ehv,6
ehv|4,,Eindhoven Spoor 4,5.48038601875,51.4431381811,,0,ehv,4
ehv|5,,Eindhoven Spoor 5,5.48034310341,51.4432652375,,0,ehv,5
rtz,rtz,Rotterdam Zuid,4.51088547707,51.9037915352,Europe/Amsterdam,1,,
zv|0,,Zevenaar,6.07181310654,51.9231990777,,0,zv,
zv|1,,Zevenaar Spoor 1,6.07188284397,51.9232850942,,0,zv,1
zv|2,,Zevenaar Spoor 2,6.07365,51.922892,,0,zv,2
ashfd,ashfd,Ashford International,0.87636,51.14374,Europe/London,1,,
duisb|0,,Duisburg Hbf,6.77474,51.430006,,0,duisb,
almb|0,,Almere Buiten,5.27780413628,52.3938692459,,0,almb,
almb|1,,Almere Buiten Spoor 1,5.2778416872,52.3942031445,,0,almb,1
almb|2,,Almere Buiten Spoor 2,5.27799725533,52.3941180333,,0,almb,2
std,std,Sittard,5.85907101631,51.0013602335,Europe/Amsterdam,1,,
hil,hil,Hillegom,4.56605315208,52.3031075295,Europe/Amsterdam,1,,
swk|0,,Steenwijk,6.11786663532,52.7905526117,,0,swk,
swk|1,,Steenwijk Spoor 1,6.11619830132,52.7911916803,,0,swk,1
ktr|4,,Kesteren Spoor 4,5.58330774307,51.9314145605,,0,ktr,4
ktr|0,,Kesteren,5.58333456516,51.9316808314,,0,ktr,
ehv|4a,,Eindhoven Spoor 4a,5.48192024231,51.4433321091,,0,ehv,4a
ktr|3,,Kesteren Spoor 3,5.58329164982,51.9314525993,,0,ktr,3
ktr,ktr,Kesteren,5.5831682682,51.9315816002,Europe/Amsterdam,1,,
arn,arn,Arnemuiden,3.66984665394,51.501444953,Europe/Amsterdam,1,,
berch,berch,Antwerpen-Berchem,4.43240404129,51.1992334366,Europe/Amsterdam,1,,
luik|0,,Liege-Guillemins,5.56659221649,50.624283527,,0,luik,
sknd,sknd,Sneek Noord,5.66286206245,53.0400922327,Europe/Amsterdam,1,,
hks,hks,Hoogkarspel,5.18384769559,52.690573223,Europe/Amsterdam,1,,
asd|5a,,Amsterdam Centraal Spoor 5a,4.89953756332,52.3791850285,,0,asd,5a
asd|5b,,Amsterdam Centraal Spoor 5b,4.90121126175,52.3784449587,,0,asd,5b
kswe|0,,Schwelm,7.2907,51.290649,,0,kswe,
sk|0,,Sneek,5.65132319927,53.0321747892,,0,sk,
zb|2,,Zuidbroek Spoor 2,6.86753332615,53.1593388817,,0,zb,2
zb|3,,Zuidbroek Spoor 3,6.86753332615,53.159319583,,0,zb,3
esn|0,,Essen (Belgie),4.45113658905,51.4626873303,,0,esn,
mmlh|0,,Mook Molenhoek,5.87931632996,51.7662098524,,0,mmlh,
mmlh|1,,Mook Molenhoek Spoor 1,5.8789730072,51.7664588432,,0,mmlh,1
mmlh|2,,Mook Molenhoek Spoor 2,5.87874770164,51.7665252405,,0,mmlh,2
bourg,bourg,Bourg-St-Maurice,6.77187,45.616355,Europe/Amsterdam,1,,
asdl|2,,Amsterdam Lelylaan Spoor 2,4.83411043882,52.3578735888,,0,asdl,2
asdl|0,,Amsterdam Lelylaan,4.83361959457,52.3581717218,,0,asdl,
asdl|1,,Amsterdam Lelylaan Spoor 1,4.83394682407,52.3578653983,,0,asdl,1
zue|0,,Zuerich HB,8.5401,47.377672,,0,zue,
tbr|1,,Tilburg Reeshof Spoor 1,4.99355971813,51.5737022961,,0,tbr,1
tbr|0,,Tilburg Reeshof,4.99417126179,51.5739890214,,0,tbr,
tbr|2,,Tilburg Reeshof Spoor 2,4.99355971813,51.573578937,,0,tbr,2
zvt|1,,Zandvoort aan Zee Spoor 1,4.53191131353,52.3756417501,,0,zvt,1
zvt|0,,Zandvoort aan Zee,4.53076064587,52.3759495878,,0,zvt,
zvt|2,,Zandvoort aan Zee Spoor 2,4.53184694052,52.3755664278,,0,zvt,2
ecmf,ecmf,Coesfeld (Westf),7.16424,51.939058,Europe/Amsterdam,1,,
lw|5a,,Leeuwarden Spoor 5a,5.79225718975,53.1959940868,,0,lw,5a
std|3b,,Sittard Spoor 3b,5.85883498192,51.0020218932,,0,std,3b
asdz,asdz,Amsterdam Zuid,4.87286567688,52.3388200309,Europe/Amsterdam,1,,
std|3a,,Sittard Spoor 3a,5.85804104805,51.0007255715,,0,std,3a
hno|0,,Heino,6.22200876474,52.4271599237,,0,hno,
hno|1,,Heino Spoor 1,6.2214910984,52.4273251119,,0,hno,1
hno|2,,Heino Spoor 2,6.22143477201,52.4273038501,,0,hno,2
ddr|1b,,Dordrecht Spoor 1b,4.66918408871,51.8072581738,,0,ddr,1b
krd,krd,Kerkrade Centrum,6.05727016926,50.8611901592,Europe/Amsterdam,1,,
asdl,asdl,Amsterdam Lelylaan,4.8340433836,52.3578899698,Europe/Amsterdam,1,,
asdm,asdm,Amsterdam Muiderpoort,4.93115544319,52.360987505,Europe/Amsterdam,1,,
tgo,tgo,Goeppingen,9.65165,48.700162,Europe/Amsterdam,1,,
swk,swk,Steenwijk,6.1164611578,52.7909483811,Europe/Amsterdam,1,,
pt,pt,Putten,5.57574927807,52.2652355454,Europe/Amsterdam,1,,
swd,swd,Sauwerd,6.54013216496,53.2915018915,Europe/Amsterdam,1,,
ztmo|0,,Zoetermeer Oost,4.49244,52.046525,,0,ztmo,
ztmo|1,,Zoetermeer Oost Spoor 1,4.49199467897,52.0464120393,,0,ztmo,1
ztmo|2,,Zoetermeer Oost Spoor 2,4.49200809002,52.0464813233,,0,ztmo,2
eprn|0,,Preussen,7.53934,51.588875,,0,eprn,
rtd|9,,Rotterdam Centraal Spoor 9,4.46858167648,51.9249094512,,0,rtd,9
rtd|8,,Rotterdam Centraal Spoor 8,4.46856021881,51.9249855398,,0,rtd,8
rtd|3,,Rotterdam Centraal Spoor 3,4.46873188019,51.9245885543,,0,rtd,3
rtd|1,,Rotterdam Centraal Spoor 1,4.46880161762,51.9244562251,,0,rtd,1
rtd|0,,Rotterdam Centraal,4.4702231884,51.9239864531,,0,rtd,
rtd|7,,Rotterdam Centraal Spoor 7,4.46860581636,51.9248548658,,0,rtd,7
rtd|6,,Rotterdam Centraal Spoor 6,4.46864068508,51.9248002803,,0,rtd,6
rtd|4,,Rotterdam Centraal Spoor 4,4.46869432926,51.9246679517,,0,rtd,4
ldl|1,,Leiden Lammenschans Spoor 1,4.49292272329,52.1467363296,,0,ldl,1
sknd|2,,Sneek Noord Spoor 2,5.66271454096,53.0401164232,,0,sknd,2
sknd|0,,Sneek Noord,5.66301226616,53.0402325369,,0,sknd,
sknd|1,,Sneek Noord Spoor 1,5.66280573606,53.0401019089,,0,sknd,1
edkd|0,,Dortmund-Kirchderne,7.51024,51.546969,,0,edkd,
hlms,hlms,Haarlem Spaarnwoude,4.67106699944,52.3830456338,Europe/Amsterdam,1,,
lp|2,,Loppersum Spoor 2,6.74805164337,53.334547346,,0,lp,2
bkf|0,,Bovenkarspel Flora,5.25268524885,52.6960571044,,0,bkf,
bkf|1,,Bovenkarspel Flora Spoor 1,5.2537098527,52.6961253768,,0,bkf,1
ijt|0,,IJlst,5.61608970165,53.0145718584,,0,ijt,
ijt|1,,IJlst Spoor 1,5.61596363783,53.0146670636,,0,ijt,1
amfs,amfs,Amersfoort Schothorst,5.4040235281,52.1747146623,Europe/Amsterdam,1,,
ksb|0,,Siegburg,7.20334,50.794052,,0,ksb,
ass|8,,Amsterdam Sloterdijk Spoor 8,4.83841001987,52.3887818894,,0,ass,8
ass|9,,Amsterdam Sloterdijk Spoor 9,4.83559906483,52.3882646093,,0,ass,9
krg|2,,Kruiningen-Yerseke Spoor 2,4.0366601944,51.4654445307,,0,krg,2
krg|1,,Kruiningen-Yerseke Spoor 1,4.03661191463,51.4654111111,,0,krg,1
krg|0,,Kruiningen-Yerseke,4.0366601944,51.465190541,,0,krg,
ass|3,,Amsterdam Sloterdijk Spoor 3,4.83841001987,52.389263151,,0,ass,3
ass|0,,Amsterdam Sloterdijk,4.83619987965,52.39026167,,0,ass,
gdm|0,,Geldermalsen,5.27213931084,51.8827928276,,0,gdm,
ass|6,,Amsterdam Sloterdijk Spoor 6,4.83840465546,52.3889455844,,0,ass,6
ass|7,,Amsterdam Sloterdijk Spoor 7,4.83841538429,52.3888473675,,0,ass,7
ass|4,,Amsterdam Sloterdijk Spoor 4,4.83841001987,52.3891616609,,0,ass,4
ass|5,,Amsterdam Sloterdijk Spoor 5,4.83839929104,52.3890307056,,0,ass,5
hks|0,,Hoogkarspel,5.18229871988,52.6905234347,,0,hks,
rtd|1b,,Rotterdam Centraal Spoor 1b,4.46785748005,51.9242709635,,0,rtd,1b
rtd|1a,,Rotterdam Centraal Spoor 1a,4.4704324007,51.9247771228,,0,rtd,1a
stolb|0,,Stolberg Hbf,6.21886,50.794997,,0,stolb,
paris|0,,Paris-Nord,2.35592365265,48.881735398,,0,paris,
es|4,,Enschede Spoor 4,6.88955962658,52.2224563335,,0,es,4
es|5,,Enschede Spoor 5,6.89140498638,52.2227619516,,0,es,5
es|0,,Enschede,6.89095437527,52.2223215979,,0,es,
es|1,,Enschede Spoor 1,6.88959181309,52.2222164382,,0,es,1
es|2,,Enschede Spoor 2,6.88958108425,52.2222985943,,0,es,2
es|3,,Enschede Spoor 3,6.88957571983,52.222364319,,0,es,3
ampo,ampo,Almere Poort,5.15519499779,52.3481602332,Europe/Amsterdam,1,,
rtd|13,,Rotterdam Centraal Spoor 13,4.4683778286,51.9253527481,,0,rtd,13
rtd|12,,Rotterdam Centraal Spoor 12,4.46841537952,51.9252568111,,0,rtd,12
rtd|11,,Rotterdam Centraal Spoor 11,4.46844756603,51.9251774148,,0,rtd,11
rtd|10,,Rotterdam Centraal Spoor 10,4.46853339672,51.9250550118,,0,rtd,10
rtd|16,,Rotterdam Centraal Spoor 16,4.4677823782,51.9254420686,,0,rtd,16
rtd|15,,Rotterdam Centraal Spoor 15,4.46827590466,51.9255016155,,0,rtd,15
rtd|14,,Rotterdam Centraal Spoor 14,4.46835100651,51.9254023707,,0,rtd,14
gdg|4,,Gouda Goverwelle Spoor 4,4.74108874798,52.0151589627,,0,gdg,4
nvd,nvd,Nijverdal,6.47051811218,52.3655605181,Europe/Amsterdam,1,,
elet,elet,Lette (Kr Coesfeld),7.18695,51.892503,Europe/Amsterdam,1,,
gdg|0,,Gouda Goverwelle,4.74158763885,52.0145118548,,0,gdg,
gdg|3,,Gouda Goverwelle Spoor 3,4.74100291729,52.0149674725,,0,gdg,3
gdg|2,,Gouda Goverwelle Spoor 2,4.74100828171,52.0150335037,,0,gdg,2
badenz|0,,Baden,8.30773,47.477327,,0,badenz,
spm|2,,Sappemeer Oost Spoor 2,6.79673373699,53.1588483687,,0,spm,2
spm|1,,Sappemeer Oost Spoor 1,6.7953389883,53.1589979356,,0,spm,1
spm|0,,Sappemeer Oost,6.7961409688,53.1588338945,,0,spm,
mgzb|0,,Guenzburg,10.27877,48.460218,,0,mgzb,
kdul,kdul,Duelken,6.3387,51.257021,Europe/Amsterdam,1,,
eop|0,,Ochtrup,7.18261,52.201735,,0,eop,
wad|1,,Waddinxveen Spoor 1,4.64985072613,52.0440348736,,0,wad,1
wad|0,,Waddinxveen,4.65022087097,52.04449349,,0,wad,
wad|2,,Waddinxveen Spoor 2,4.64991509914,52.0440348736,,0,wad,2
dron|4,,Dronten Spoor 4,5.7205080986,52.5345240623,,0,dron,4
wt|3b,,Weert Spoor 3b,5.70470452309,51.2485761727,,0,wt,3b
gn|4b,,Groningen Spoor 4b,6.56565070152,53.2106653905,,0,gn,4b
rsw|0,,Rijswijk,4.32000875473,52.0391481718,,0,rsw,
rvs|2,,Ravenstein Spoor 2,5.63632428646,51.794300629,,0,rvs,2
rvs|0,,Ravenstein,5.6376439333,51.794645681,,0,rvs,
rvs|1,,Ravenstein Spoor 1,5.63622772694,51.7943835744,,0,rvs,1
fnaf,fnaf,Frankfurt Flughafen Fernb,8.57014,50.053196,Europe/Amsterdam,1,,
hvl|1,,Hoevelaken Spoor 1,5.45888543129,52.1663973718,,0,hvl,1
hvl|0,,Hoevelaken,5.45868694782,52.1663710488,,0,hvl,
bkg|1,,Bovenkarspel-Grootebroek Spoor 1,5.23613870144,52.6950899007,,0,bkg,1
bkg|0,,Bovenkarspel-Grootebroek,5.23572430015,52.695291471,,0,bkg,
bkg|2,,Bovenkarspel-Grootebroek Spoor 2,5.23613870144,52.6950687683,,0,bkg,2
ijt,ijt,IJlst,5.61618357897,53.0147203138,Europe/Amsterdam,1,,
hwob|0,,Wolfsburg,10.7882,52.429479,,0,hwob,
lw|8,,Leeuwarden Spoor 8,5.79395234585,53.1963026021,,0,lw,8
wz|2,,Wezep Spoor 2,6.00170016289,52.4536393637,,0,wz,2
wz|1,,Wezep Spoor 1,6.00190401077,52.4535445599,,0,wz,1
wz|0,,Wezep,6.00235998631,52.4533614899,,0,wz,
lw|3,,Leeuwarden Spoor 3,5.79258441925,53.1961869091,,0,lw,3
lw|2,,Leeuwarden Spoor 2,5.79258978367,53.1962383283,,0,lw,2
lw|1,,Leeuwarden Spoor 1,5.79254150391,53.1963186706,,0,lw,1
lw|0,,Leeuwarden,5.79321205616,53.19662397,,0,lw,
lw|4,,Leeuwarden Spoor 4,5.79315304756,53.196177268,,0,lw,4
ah|3,,Arnhem Spoor 3,5.90021073818,51.9845960139,,0,ah,3
ah|0,,Arnhem,5.8991754055,51.9855673211,,0,ah,
pmw,pmw,Purmerend Weidevenne,4.93502184749,52.4963754906,Europe/Amsterdam,1,,
ah|4,,Arnhem Spoor 4,5.90023219585,51.9846686974,,0,ah,4
ah|9,,Arnhem Spoor 9,5.90032875538,51.9849429117,,0,ah,9
ah|8,,Arnhem Spoor 8,5.90031266212,51.9848735324,,0,ah,8
zlw,zlw,Lage Zwaluwe,4.66302573681,51.6903831256,Europe/Amsterdam,1,,
ec|0,,Echt,5.87836951017,51.1001668945,,0,ec,
ec|1,,Echt Spoor 1,5.87908297777,51.1007631407,,0,ec,1
ec|2,,Echt Spoor 2,5.87904274464,51.1007749308,,0,ec,2
ls|0,,Stendal,11.85439,52.594739,,0,ls,
bd,bd,Breda,4.77987349033,51.5950450493,Europe/Amsterdam,1,,
bf,bf,Baflo,6.51864767075,53.3610625661,Europe/Amsterdam,1,,
bl,bl,Beilen,6.52100265026,52.8549410089,Europe/Amsterdam,1,,
bn,bn,Borne,6.74899578094,52.2984197949,Europe/Amsterdam,1,,
bh,bh,Bad Bentheim,7.15778589249,52.309659357,Europe/Amsterdam,1,,
bk,bk,Beek-Elsloo,5.78601032495,50.9469199343,Europe/Amsterdam,1,,
berhbl,berhbl,Berlin Hbf-Lehrter Bahnh.,13.36951,52.525631,Europe/Amsterdam,1,,
bv,bv,Beverwijk,4.65630412102,52.4783500423,Europe/Amsterdam,1,,
bp,bp,Buitenpost,6.14438831806,53.2562987284,Europe/Amsterdam,1,,
ashfd|0,,Ashford International,0.87636,51.14374,,0,ashfd,
br,br,Blerick,6.15512788296,51.3725037143,Europe/Amsterdam,1,,
wr|0,,Weener,7.34269738197,53.1634654022,,0,wr,
hrl,hrl,Heerlen,5.97381591797,50.8905986891,Europe/Amsterdam,1,,
mt|5b,,Maastricht Spoor 5b,5.70534825325,50.8510208091,,0,mt,5b
mt|5a,,Maastricht Spoor 5a,5.70583105087,50.8499573524,,0,mt,5a
bgn,bgn,Bergen op Zoom,4.29585814476,51.4949912547,Europe/Amsterdam,1,,
amf|5,,Amersfoort Spoor 5,5.37056028843,52.1536848377,,0,amf,5
amf|7,,Amersfoort Spoor 7,5.37053346634,52.1539020639,,0,amf,7
amf|6,,Amersfoort Spoor 6,5.37054419518,52.153826364,,0,amf,6
amf|1,,Amersfoort Spoor 1,5.37062466145,52.1532865868,,0,amf,1
amf|0,,Amersfoort,5.37336051464,52.1530134044,,0,amf,
amf|2,,Amersfoort Spoor 2,5.37059783936,52.1534281144,,0,amf,2
lg|3,,Landgraaf Spoor 3,6.01961195469,50.8963543333,,0,lg,3
amf|2a,,Amersfoort Spoor 2a,5.36960542202,52.153385327,,0,amf,2a
lg|1,,Landgraaf Spoor 1,6.0204488039,50.8967366642,,0,lg,1
lg|0,,Landgraaf,6.01951539516,50.896134407,,0,lg,
oberh,oberh,Oberhausen Hbf,6.85198,51.47509,Europe/Amsterdam,1,,
vtn|4,,Vleuten Spoor 4,5.00793635845,52.10282145,,0,vtn,4
lc|2,,Lochem Spoor 2,6.42591834068,52.166792215,,0,lc,2
lc|1,,Lochem Spoor 1,6.42593979836,52.1668514412,,0,lc,1
lc|0,,Lochem,6.42618656158,52.1666276974,,0,lc,
ns|2,,Nunspeet Spoor 2,5.78477650881,52.3709125698,,0,ns,2
wv|3,,Wolvega Spoor 3,6.00471496582,52.8802513971,,0,wv,3
wv|2,,Wolvega Spoor 2,6.00474178791,52.8802611091,,0,wv,2
wv|0,,Wolvega,6.00466668606,52.8799713667,,0,wv,
ehzw,ehzw,Holzwickede,7.62052,51.50508,Europe/Amsterdam,1,,
sdt,sdt,Sliedrecht,4.77819979191,51.8294757054,Europe/Amsterdam,1,,
ehv|3a,,Eindhoven Spoor 3a,5.47951161861,51.4430178116,,0,ehv,3a
bfbi|0,,Berlin Brandenburg Flughafen,13.51183,52.390895,,0,bfbi,
emnz,emnz,Emmen Zuid,6.87420129776,52.7488209148,Europe/Amsterdam,1,,
nwk|1,,Nieuwerkerk ad IJssel Spoor 1,4.61717069149,51.965419948,,0,nwk,1
nwk|0,,Nieuwerkerk ad IJssel,4.61713314056,51.9652778235,,0,nwk,
nwk|2,,Nieuwerkerk ad IJssel Spoor 2,4.61672276258,51.9652844339,,0,nwk,2
fn|1,,Franeker Spoor 1,5.54943948984,53.1824075682,,0,fn,1
valtgv,valtgv,Valence TGV,4.89286422729,44.9265868361,Europe/Amsterdam,1,,
sda,sda,Scheemda,6.97806179523,53.1654850978,Europe/Amsterdam,1,,
sdm,sdm,Schiedam Centrum,4.40959990025,51.9218476051,Europe/Amsterdam,1,,
rtd|10b,,Rotterdam Centraal Spoor 10b,4.46735322475,51.9248068967,,0,rtd,10b
utg,utg,Uitgeest,4.7022369504,52.5216199255,Europe/Amsterdam,1,,
ut,ut,Utrecht Centraal,5.10987102985,52.0894513306,Europe/Amsterdam,1,,
mech|0,,Mechelen,4.48370933533,51.01765592,,0,mech,
utl,utl,Utrecht Lunetten,5.14361590147,52.0658799131,Europe/Amsterdam,1,,
utm,utm,Utrecht Maliebaan,5.13117313385,52.0878922661,Europe/Amsterdam,1,,
dvd|1,,Duivendrecht Spoor 1,4.93616580963,52.3233011021,,0,dvd,1
dvd|0,,Duivendrecht,4.93619799614,52.3231043761,,0,dvd,
nsch,nsch,Nieuweschans,7.20052957535,53.1848281929,Europe/Amsterdam,1,,
utt,utt,Utrecht Terwijde,5.04108309746,52.1004522288,Europe/Amsterdam,1,,
dvd|4,,Duivendrecht Spoor 4,4.93596196175,52.3235634022,,0,dvd,4
rlb|4,,Rotterdam Lombardijen Spoor 4,4.53119516373,51.8802927221,,0,rlb,4
dvd|8,,Duivendrecht Spoor 8,4.93596196175,52.3237338964,,0,dvd,8
rlb|1,,Rotterdam Lombardijen Spoor 1,4.53131854534,51.880319214,,0,rlb,1
rlb|0,,Rotterdam Lombardijen,4.53030467033,51.8800542941,,0,rlb,
rlb|3,,Rotterdam Lombardijen Spoor 3,4.53101813793,51.8802231807,,0,rlb,3
rlb|2,,Rotterdam Lombardijen Spoor 2,4.53093767166,51.8802000002,,0,rlb,2
dld|1,,Den Dolder Spoor 1,5.24271279573,52.1404419084,,0,dld,1
dld|0,,Den Dolder,5.24146556854,52.1400583545,,0,dld,
dld|2,,Den Dolder Spoor 2,5.2427905798,52.1403661856,,0,dld,2
brusn|0,,Brussel-Noord,4.36172246933,50.8604282967,,0,brusn,
std|20,,Sittard Spoor 20,5.8583843708,51.0006310467,,0,std,20
eahs|0,,Ahaus,7.01669,52.081615,,0,eahs,
hto|2,,Hertogenb ('s) Oost Spoor 2,5.31863808632,51.700471448,,0,hto,2
hto|0,,Hertogenb ('s) Oost,5.31858980656,51.701023348,,0,hto,
hto|1,,Hertogenb ('s) Oost Spoor 1,5.3186327219,51.7005678648,,0,hto,1
marne|0,,Marne-la-Vallee-Chessy,2.78211593628,48.8681588736,,0,marne,
wf|3,,Wolfheze Spoor 3,5.79284191132,52.0056098699,,0,wf,3
wf|2,,Wolfheze Spoor 2,5.79282045364,52.0055702429,,0,wf,2
wf|1,,Wolfheze Spoor 1,5.79278290272,52.0054711751,,0,wf,1
wf|0,,Wolfheze,5.7918548584,52.0056660081,,0,wf,
apd|4,,Apeldoorn Spoor 4,5.96939027309,52.2092733163,,0,apd,4
ebft,ebft,Burgsteinfurt,7.32919,52.147541,Europe/Amsterdam,1,,
apd|0,,Apeldoorn,5.96937954426,52.2092141466,,0,apd,
apd|1,,Apeldoorn Spoor 1,5.96933662891,52.2094409634,,0,apd,1
mt|6,,Maastricht Spoor 6,5.70560574532,50.8506821312,,0,mt,6
apd|3,,Apeldoorn Spoor 3,5.96877872944,52.2097039379,,0,apd,3
zlw|0,,Lage Zwaluwe,4.66261267662,51.6897612603,,0,zlw,
zlw|1,,Lage Zwaluwe Spoor 1,4.66328859329,51.6904064039,,0,zlw,1
zlw|2,,Lage Zwaluwe Spoor 2,4.66342806816,51.6904463093,,0,zlw,2
zlw|3,,Lage Zwaluwe Spoor 3,4.66350317001,51.6904745757,,0,zlw,3
rai|1,,Amsterdam RAI Spoor 1,4.89025175571,52.3369271705,,0,rai,1
rai|0,,Amsterdam RAI,4.89098131657,52.3371910286,,0,rai,
bsmz|0,,Bussum Zuid,5.16274541616,52.2653176218,,0,bsmz,
rai|2,,Amsterdam RAI Spoor 2,4.89038318396,52.3370009198,,0,rai,2
std|2a,,Sittard Spoor 2a,5.85815906525,51.0006850609,,0,std,2a
std|2b,,Sittard Spoor 2b,5.85893154144,51.0019948869,,0,std,2b
lang,lang,Langerwehe,6.35535,50.817575,Europe/Amsterdam,1,,
dvn,dvn,Duiven,6.01421535015,51.9434348706,Europe/Amsterdam,1,,
dvd,dvd,Duivendrecht,4.9364554882,52.3235699597,Europe/Amsterdam,1,,
dvc,dvc,Deventer Colmschate,6.21526300907,52.2503410778,Europe/Amsterdam,1,,
ddr,ddr,Dordrecht,4.66774642467,51.8075467403,Europe/Amsterdam,1,,
gw,gw,Grou-Jirnsum,5.8224105835,53.0900326142,Europe/Amsterdam,1,,
gv,gv,Den Haag HS,4.3222028017,52.0701322273,Europe/Amsterdam,1,,
gs,gs,Goes,3.89053344727,51.4984444727,Europe/Amsterdam,1,,
gr,gr,Gorinchem,4.96739208698,51.8335731457,Europe/Amsterdam,1,,
edd,edd,Dortmund-Derne,7.52836,51.567228,Europe/Amsterdam,1,,
gp,gp,Geldrop,5.55048286915,51.4201184276,Europe/Amsterdam,1,,
edn,edn,Eijsden,5.70982217789,50.7720763187,Europe/Amsterdam,1,,
gz,gz,Gilze-Rijen,4.92407441139,51.5841365983,Europe/Amsterdam,1,,
ddzd|0,,Dordrecht Zuid,4.6721559763,51.7905878351,,0,ddzd,
gd,gd,Gouda,4.70541536808,52.0169549682,Europe/Amsterdam,1,,
mt|2,,Maastricht Spoor 2,5.70489764214,50.8509225927,,0,mt,2
go,go,Goor,6.58494114876,52.2304148646,Europe/Amsterdam,1,,
pt|0,,Putten,5.57618379593,52.2653832829,,0,pt,
gk,gk,Grijpskerk,6.30971431732,53.2558943685,Europe/Amsterdam,1,,
mt|1,,Maastricht Spoor 1,5.70481717587,50.8509158192,,0,mt,1
gw|1,,Grou-Jirnsum Spoor 1,5.82247495651,53.0896363493,,0,gw,1
hwzb|1,,Halfweg-Zwanenburg Spoor 1,4.7517478466,52.3848333824,,0,hwzb,1
hwzb|0,,Halfweg-Zwanenburg,4.75195705891,52.3846434785,,0,hwzb,
hwzb|2,,Halfweg-Zwanenburg Spoor 2,4.75182831287,52.3849643502,,0,hwzb,2
egh|1,,Eygelshoven Spoor 1,6.04553818703,50.8901723168,,0,egh,1
egh|0,,Eygelshoven,6.04591906071,50.8900471115,,0,egh,
bsk|1,,Boskoop Spoor 1,4.64666962624,52.0775377729,,0,bsk,1
gdm|4a,,Geldermalsen Spoor 4a,5.27098596096,51.8833888588,,0,gdm,4a
gdm|4b,,Geldermalsen Spoor 4b,5.27145266533,51.8822994403,,0,gdm,4b
bsk|2,,Boskoop Spoor 2,4.64672327042,52.077531179,,0,bsk,2
lkp,lkp,Kapellen,4.43343,51.311031,Europe/Amsterdam,1,,
ddn,ddn,Delden,6.7146474123,52.2601793425,Europe/Amsterdam,1,,
vry|0,,Venray,6.01357698441,51.5267015981,,0,vry,
vry|1,,Venray Spoor 1,6.0143199563,51.5268968398,,0,vry,1
vry|2,,Venray Spoor 2,6.01423680782,51.5268851587,,0,vry,2
vry|3,,Venray Spoor 3,6.01402759552,51.5268184094,,0,vry,3
gk|2,,Grijpskerk Spoor 2,6.3100361824,53.255746744,,0,gk,2
gk|0,,Grijpskerk,6.30919933319,53.2559970634,,0,gk,
gk|1,,Grijpskerk Spoor 1,6.31005764008,53.2558622762,,0,gk,1
vlb,vlb,Vierlingsbeek,5.9970921278,51.5919690846,Europe/Amsterdam,1,,
mout,mout,Moutiers-Salins-Brides,6.5214,45.480519,Europe/Amsterdam,1,,
enow|0,,Nordwalde,7.4617,52.077585,,0,enow,
hde|4,,Harde ('t) Spoor 4,5.89217,52.409077,,0,hde,4
hdb|2,,Hardenberg Spoor 2,6.62810325623,52.5724198595,,0,hdb,2
hdb|1,,Hardenberg Spoor 1,6.62806838751,52.5724410512,,0,hdb,1
hdb|0,,Hardenberg,6.62757754326,52.572366065,,0,hdb,
amr|1,,Alkmaar Spoor 1,4.7401446104,52.6377606974,,0,amr,1
amr|0,,Alkmaar,4.74062204361,52.6376142038,,0,amr,
amr|3,,Alkmaar Spoor 3,4.7401124239,52.637910446,,0,amr,3
zl,zl,Zwolle,6.09058320522,52.5055611557,Europe/Amsterdam,1,,
did|0,,Didam,6.13209575415,51.9334107271,,0,did,
did|1,,Didam Spoor 1,6.13268315792,51.9334388415,,0,did,1
zh,zh,Zuidhorn,6.40636503696,53.2481369778,Europe/Amsterdam,1,,
zd,zd,Zaandam,4.81383025646,52.4384469017,Europe/Amsterdam,1,,
cl|1,,Culemborg Spoor 1,5.22652029991,51.9471879738,,0,cl,1
kma|0,,Krommenie-Assendelft,4.76152181625,52.4945020373,,0,kma,
kma|1,,Krommenie-Assendelft Spoor 1,4.76148158312,52.4943224037,,0,kma,1
kma|2,,Krommenie-Assendelft Spoor 2,4.76149767637,52.4943958903,,0,kma,2
cl|0,,Culemborg,5.22721767426,51.9472739443,,0,cl,
odb,odb,Oudenbosch,4.53316658735,51.5878996933,Europe/Amsterdam,1,,
zp,zp,Zutphen,6.19427740574,52.1445636697,Europe/Amsterdam,1,,
go|2,,Goor Spoor 2,6.58541858196,52.2302242972,,0,go,2
go|0,,Goor,6.58459246159,52.2305002912,,0,go,
go|1,,Goor Spoor 1,6.58541321754,52.2303327236,,0,go,1
bdm,bdm,Bedum,6.59284293652,53.3068360625,Europe/Amsterdam,1,,
ampo|2,,Almere Poort Spoor 2,5.15531301498,52.3481176333,,0,ampo,2
ampo|1,,Almere Poort Spoor 1,5.15505552292,52.3481798947,,0,ampo,1
ampo|0,,Almere Poort,5.15529155731,52.3479374022,,0,ampo,
bnn|1,,Barneveld Noord Spoor 1,5.59877872467,52.1608691984,,0,bnn,1
bnn|0,,Barneveld Noord,5.59864461422,52.1610798081,,0,bnn,
mt|4a,,Maastricht Spoor 4a,5.70571303368,50.8498421995,,0,mt,4a
mt|4b,,Maastricht Spoor 4b,5.70518732071,50.8509869414,,0,mt,4b
mth|0,,Martenshoek,6.74012303352,53.1606704757,,0,mth,
mth|1,,Martenshoek Spoor 1,6.74051463604,53.1608602406,,0,mth,1
mth|2,,Martenshoek Spoor 2,6.74074530602,53.1607701828,,0,mth,2
rl|2,,Ruurlo Spoor 2,6.45025670528,52.0806433841,,0,rl,2
hamh|0,,Hamburg Hbf,10.00697,53.552724,,0,hamh,
rl|0,,Ruurlo,6.44943058491,52.0811444816,,0,rl,
rl|1,,Ruurlo Spoor 1,6.45028352737,52.0806730545,,0,rl,1
mcgb,mcgb,Moenchengladbach Hbf,6.44618,51.196582,Europe/Amsterdam,1,,
std|2,,Sittard Spoor 2,5.85857748985,51.0014480053,,0,std,2
std|3,,Sittard Spoor 3,5.85847020149,51.0014615086,,0,std,3
std|0,,Sittard,5.85945725441,51.0018058421,,0,std,
std|1,,Sittard Spoor 1,5.8587706089,51.0014142469,,0,std,1
hr|2,,Heerenveen Spoor 2,5.91551542282,52.960782887,,0,hr,2
hr|3,,Heerenveen Spoor 3,5.91532766819,52.9607150293,,0,hr,3
hr|0,,Heerenveen,5.91644346714,52.9602949551,,0,hr,
berhbl|0,,Berlin Hbf-Lehrter Bahnh.,13.36951,52.525631,,0,berhbl,
hdr|3,,Den Helder Spoor 3,4.76073056459,52.9566029739,,0,hdr,3
hdr|2,,Den Helder Spoor 2,4.76065009832,52.9565965106,,0,hdr,2
hdr|1,,Den Helder Spoor 1,4.76073,52.956894,,0,hdr,1
hdr|0,,Den Helder,4.76025849581,52.9565237988,,0,hdr,
rh|2,,Rheden Spoor 2,6.0319018364,52.0102492929,,0,rh,2
rh|0,,Rheden,6.03116154671,52.0099323085,,0,rh,
rh|1,,Rheden Spoor 1,6.03021740913,52.0099323085,,0,rh,1
gs|2,,Goes Spoor 2,3.89062464237,51.498204025,,0,gs,2
ddr|4a,,Dordrecht Spoor 4a,4.66646432877,51.8073410954,,0,ddr,4a
ddr|4b,,Dordrecht Spoor 4b,4.66908216476,51.8070060912,,0,ddr,4b
sgn|1,,Schagen Spoor 1,4.80516940355,52.7852320822,,0,sgn,1
sgn|0,,Schagen,4.80487972498,52.7852515488,,0,sgn,
sgn|3,,Schagen Spoor 3,4.80542421341,52.7852385711,,0,sgn,3
sgn|2,,Schagen Spoor 2,4.80535179377,52.7852369489,,0,sgn,2
avat|0,,Amersfoort Vathorst,5.43259441853,52.1923607232,,0,avat,
gs|1,,Goes Spoor 1,3.8906031847,51.4982474392,,0,gs,1
avat|1,,Amersfoort Vathorst Spoor 1,5.43328642845,52.1921634154,,0,avat,1
asd|7b,,Amsterdam Centraal Spoor 7b,4.90142047405,52.3786872838,,0,asd,7b
asd|7a,,Amsterdam Centraal Spoor 7a,4.89970386028,52.3793258368,,0,asd,7a
zv|3,,Zevenaar Spoor 3,6.07179701328,51.9231527611,,0,zv,3
rd|0,,Roodeschool,6.76062583923,53.4189863507,,0,rd,
rd|1,,Roodeschool Spoor 1,6.76027715206,53.4190215174,,0,rd,1
apn,apn,Alphen a/d Rijn,4.65755939484,52.1247348974,Europe/Amsterdam,1,,
sgl,sgl,Houthem-St Gerlach,5.79657554626,50.873503516,Europe/Amsterdam,1,,
sgn,sgn,Schagen,4.80504333973,52.7853083261,Europe/Amsterdam,1,,
hz|0,,Herzogenrath,6.09431147575,50.8709036609,,0,hz,
apg,apg,Appingedam,6.86195969582,53.3258110056,Europe/Amsterdam,1,,
apd,apd,Apeldoorn,5.96859633923,52.2095494406,Europe/Amsterdam,1,,
vdl|2,,Voerendaal Spoor 2,5.92936635017,50.8868931803,,0,vdl,2
vdl|1,,Voerendaal Spoor 1,5.92943072319,50.8867984237,,0,vdl,1
vdl|0,,Voerendaal,5.92967748642,50.8866156783,,0,vdl,
oberh|0,,Oberhausen Hbf,6.85198,51.47509,,0,oberh,
eseb|0,,Selm-Beifang,7.45489,51.692988,,0,eseb,
ns|1,,Nunspeet Spoor 1,5.78480869532,52.3708356018,,0,ns,1
ns|0,,Nunspeet,5.78381359577,52.3708994688,,0,ns,
gerp,gerp,Groningen Europapark,6.5829616785,53.2061996252,Europe/Amsterdam,1,,
ust,ust,Usquert,6.60928755999,53.4010715416,Europe/Amsterdam,1,,
edo|0,,Dortmund Hbf,7.45931,51.517853,,0,edo,
bzl|2,,Kapelle-Biezelinge Spoor 2,3.95639777184,51.480530986,,0,bzl,2
ah|11,,Arnhem Spoor 11,5.9003663063,51.985025506,,0,ah,11
ah|10,,Arnhem Spoor 10,5.90169131756,51.9840640986,,0,ah,10
utzl|0,,Utrecht Zuilen,5.08919388056,52.1029581954,,0,utzl,
mt|3,,Maastricht Spoor 3,5.70510149002,50.8509733943,,0,mt,3
ddzd|1,,Dordrecht Zuid Spoor 1,4.67151761055,51.7901962983,,0,ddzd,1
gw|0,,Grou-Jirnsum,5.82258224487,53.0900036193,,0,gw,
mt|0,,Maastricht,5.70486545563,50.8499912208,,0,mt,
zdk|0,,Zaandam Kogerveld,4.81880038977,52.456913239,,0,zdk,
zdk|1,,Zaandam Kogerveld Spoor 1,4.81926977634,52.4568053668,,0,zdk,1
zdk|2,,Zaandam Kogerveld Spoor 2,4.81927245855,52.4567105698,,0,zdk,2
sptn|1,,Santpoort Noord Spoor 1,4.63260948658,52.4337195437,,0,sptn,1
sptn|0,,Santpoort Noord,4.63288843632,52.4336574028,,0,sptn,
sptn|3,,Santpoort Noord Spoor 3,4.63239759207,52.4337342613,,0,sptn,3
amr|2,,Alkmaar Spoor 2,4.74013388157,52.6378485934,,0,amr,2
amr|5,,Alkmaar Spoor 5,4.74001586437,52.6380797263,,0,amr,5
amr|4,,Alkmaar Spoor 4,4.74003195763,52.6380243848,,0,amr,4
cl|2,,Culemborg Spoor 2,5.2264291048,51.9470788572,,0,cl,2
hlo|2,,Heiloo Spoor 2,4.701166749,52.6000875487,,0,hlo,2
mp|6,,Meppel Spoor 6,6.19761,52.691928,,0,mp,6
hlo|0,,Heiloo,4.7016119957,52.6001445673,,0,hlo,
hlo|1,,Heiloo Spoor 1,4.7012257576,52.6000761449,,0,hlo,1
mp|3,,Meppel Spoor 3,6.19797348976,52.6918370132,,0,mp,3
mp|2,,Meppel Spoor 2,6.19787693024,52.6918548958,,0,mp,2
gs|0,,Goes,3.89058709145,51.4986548634,,0,gs,
mp|0,,Meppel,6.197450459,52.6918776555,,0,mp,
gvm|4,,Den Haag Mariahoeve Spoor 4,4.36916559935,52.0904438462,,0,gvm,4
gvm|1,,Den Haag Mariahoeve Spoor 1,4.36895035207,52.0906201812,,0,gvm,1
gvm|0,,Den Haag Mariahoeve,4.36863452196,52.0909773812,,0,gvm,
gvm|3,,Den Haag Mariahoeve Spoor 3,4.36908781528,52.0905122379,,0,gvm,3
gvm|2,,Den Haag Mariahoeve Spoor 2,4.36902813613,52.0905567337,,0,gvm,2
std|1a,,Sittard Spoor 1a,5.85829854012,51.0006242949,,0,std,1a
std|1b,,Sittard Spoor 1b,5.85946,51.002422,,0,std,1b
ut|14a,,Utrecht Centraal Spoor 14a,5.10864794254,52.0905159459,,0,ut,14a
ut|14b,,Utrecht Centraal Spoor 14b,5.1103001833,52.0886816935,,0,ut,14b
berfl,berfl,Berlin-Schnefeld Flugh.,13.51198,52.390885,Europe/Amsterdam,1,,
hlms|2,,Haarlem Spaarnwoude Spoor 2,4.67158734798,52.3829277577,,0,hlms,2
hlms|0,,Haarlem Spaarnwoude,4.67136204243,52.3831700582,,0,hlms,
hlms|1,,Haarlem Spaarnwoude Spoor 1,4.67159807682,52.3828197043,,0,hlms,1
vl|4b,,Venlo Spoor 4b,6.17100656033,51.364804262,,0,vl,4b
vl|4a,,Venlo Spoor 4a,6.17228865623,51.3638262485,,0,vl,4a
atw|0,,Antwerpen-Centraal,4.42105293274,51.2160240336,,0,atw,
koln|0,,Koeln Hbf,6.98271,50.932523,,0,koln,
nml|0,,Nijmegen Lent,5.86015999317,51.8641959991,,0,nml,
nml|1,,Nijmegen Lent Spoor 1,5.85955917835,51.8646995229,,0,nml,1
nml|2,,Nijmegen Lent Spoor 2,5.85941433907,51.8646862724,,0,nml,2
elue,elue,Luenen Hbf,7.52953,51.616569,Europe/Amsterdam,1,,
dtch|1,,Doetinchem De Huet Spoor 1,6.26025170088,51.9591908353,,0,dtch,1
dtch|0,,Doetinchem De Huet,6.25987350941,51.9592850469,,0,dtch,
nmh|0,,Nijmegen Heyendaal,5.86765944958,51.8266261734,,0,nmh,
nmh|1,,Nijmegen Heyendaal Spoor 1,5.86774528027,51.8268250995,,0,nmh,1
nmh|2,,Nijmegen Heyendaal Spoor 2,5.86788743734,51.826879804,,0,nmh,2
neuss|0,,Neuss Hbf,6.68463,51.204862,,0,neuss,
kbk,kbk,Klarenbeek,6.08409762383,52.1780470643,Europe/Amsterdam,1,,
kbd,kbd,Krabbendijke,4.11706209183,51.4331932513,Europe/Amsterdam,1,,
nmd|0,,Nijmegen Dukenburg,5.79492330551,51.8237631985,,0,nmd,
nmd|1,,Nijmegen Dukenburg Spoor 1,5.79452097416,51.8240284499,,0,nmd,1
nmd|2,,Nijmegen Dukenburg Spoor 2,5.79451560974,51.82389914,,0,nmd,2
kbw,kbw,Koog Bloemwijk,4.80570316315,52.4577680351,Europe/Amsterdam,1,,
lg,lg,Landgraaf,6.01964950562,50.8962291446,Europe/Amsterdam,1,,
eun,eun,Unna,7.69241,51.53902,Europe/Amsterdam,1,,
ldm|0,,Leerdam,5.09239375591,51.8944404929,,0,ldm,
ldm|1,,Leerdam Spoor 1,5.09362220764,51.8945960837,,0,ldm,1
ldm|2,,Leerdam Spoor 2,5.09234547615,51.894606015,,0,ldm,2
lw,lw,Leeuwarden,5.79295992851,53.1964793547,Europe/Amsterdam,1,,
ls,ls,Stendal,11.85439,52.594739,Europe/Amsterdam,1,,
lp,lp,Loppersum,6.7475259304,53.3346530554,Europe/Amsterdam,1,,
hor|2,,Hollandsche Rading Spoor 2,5.17956823111,52.1783612117,,0,hor,2
hor|0,,Hollandsche Rading,5.17901033163,52.1781342363,,0,hor,
hor|1,,Hollandsche Rading Spoor 1,5.17912298441,52.1779286417,,0,hor,1
hon|2,,Holten Spoor 2,6.42098709941,52.2840992851,,0,hon,2
hon|0,,Holten,6.42145648599,52.2839294587,,0,hon,
hon|1,,Holten Spoor 1,6.42103001475,52.284006578,,0,hon,1
dv|2a,,Deventer Spoor 2a,6.15896880627,52.2579202812,,0,dv,2a
dv|2b,,Deventer Spoor 2b,6.16150081158,52.2570402668,,0,dv,2b
za,za,Zetten-Andelst,5.72335392237,51.9197682096,Europe/Amsterdam,1,,
mid|0,,Heide,4.46065306664,51.3649549814,,0,mid,
bhdv,bhdv,Boven-Hardinxveld,4.87825155258,51.8321244979,Europe/Amsterdam,1,,
rta|1,,Rotterdam Alexander Spoor 1,4.55274939537,51.9517111205,,0,rta,1
ahbf|0,,Aachen Hbf,6.09053,50.768073,,0,ahbf,
elgd,elgd,Legden,7.08846,52.035023,Europe/Amsterdam,1,,
ebeo,ebeo,Boenen,7.75735,51.598055,Europe/Amsterdam,1,,
zb,zb,Zuidbroek,6.86798393726,53.1595511676,Europe/Amsterdam,1,,
esrt|0,,Schwerte (Ruhr),7.55917,51.442219,,0,esrt,
kpn,kpn,Kampen,5.92161744833,52.5597747139,Europe/Amsterdam,1,,
hlo,hlo,Heiloo,4.70113992691,52.6002781536,Europe/Amsterdam,1,,
hlm,hlm,Haarlem,4.63878393173,52.3880485284,Europe/Amsterdam,1,,
hlg,hlg,Harlingen,5.42507350445,53.1704792551,Europe/Amsterdam,1,,
hld,hld,Hoek van Holland Haven,4.12958264351,51.9749412643,Europe/Amsterdam,1,,
eepe,eepe,Epe (Westf),7.03027099371,52.1837112458,Europe/Amsterdam,1,,
ddr|5b,,Dordrecht Spoor 5b,4.66908216476,51.8069762392,,0,ddr,5b
gw|2,,Grou-Jirnsum Spoor 2,5.82233548164,53.0896009108,,0,gw,2
uhm|1,,Uithuizermeeden Spoor 1,6.72019422054,53.4139444267,,0,uhm,1
uhm|0,,Uithuizermeeden,6.72051608562,53.4140755179,,0,uhm,
uhm|2,,Uithuizermeeden Spoor 2,6.72021567822,53.4140243604,,0,uhm,2
leer|0,,Leer (Ostfriesland),7.46526896954,53.2314491685,,0,leer,
ltv,ltv,Lichtenvoorde-Groenlo,6.59532666206,52.0121181345,Europe/Amsterdam,1,,
g,g,Gronau Westf,7.02173888683,52.2151537343,Europe/Amsterdam,1,,
ust|1,,Usquert Spoor 1,6.60904347897,53.4009803894,,0,ust,1
ust|0,,Usquert,6.60940557718,53.4011802843,,0,ust,
ust|2,,Usquert Spoor 2,6.60903543234,53.4010283643,,0,ust,2
ltn,ltn,Lunteren,5.62413096428,52.0850871313,Europe/Amsterdam,1,,
hlm|3b,,Haarlem Spoor 3b,4.63694930077,52.3881401992,,0,hlm,3b
ahpr,ahpr,Arnhem Presikhaaf,5.94304025173,51.9876783549,Europe/Amsterdam,1,,
hgl|11,,Hengelo Spoor 11,6.79604172707,52.2615649308,,0,hgl,11
rheine,rheine,Rheine,7.4352,52.276107,Europe/Amsterdam,1,,
arn|0,,Arnemuiden,3.66991370916,51.5013314159,,0,arn,
ztmo,ztmo,Zoetermeer Oost,4.49200540781,52.0464466814,Europe/Amsterdam,1,,
rsd,rsd,Roosendaal,4.45901691914,51.5403131107,Europe/Amsterdam,1,,
gn|6a,,Groningen Spoor 6a,6.56336009502,53.210440507,,0,gn,6a
hn|2,,Hoorn Spoor 2,5.05464702845,52.6450652245,,0,hn,2
hn|3,,Hoorn Spoor 3,5.0546617806,52.6451221846,,0,hn,3
hn|0,,Hoorn,5.05456253886,52.6447820503,,0,hn,
hn|1,,Hoorn Spoor 1,5.05462557077,52.644997686,,0,hn,1
utzl,utzl,Utrecht Zuilen,5.0895050168,52.102913712,Europe/Amsterdam,1,,
rsw,rsw,Rijswijk,4.31972444057,52.0393923546,Europe/Amsterdam,1,,
hb|2,,Hoensbroek Spoor 2,5.9301173687,50.9056055226,,0,hb,2
hb|0,,Hoensbroek,5.93013346195,50.9058186386,,0,hb,
hb|1,,Hoensbroek Spoor 1,5.93015760183,50.9056613388,,0,hb,1
eepe|0,,Epe (Westf),7.03013688326,52.1835106106,,0,eepe,
bet,bet,Best,5.38915872574,51.5097641165,Europe/Amsterdam,1,,
dtc|3,,Doetinchem Spoor 3,6.29546105862,51.9583644088,,0,dtc,3
dtc|0,,Doetinchem,6.29585802555,51.9585528354,,0,dtc,
dtc|4,,Doetinchem Spoor 4,6.29545837641,51.9583296985,,0,dtc,4
hagen,hagen,Hagen Hbf,7.45939,51.361585,Europe/Amsterdam,1,,
amf|4b,,Amersfoort Spoor 4b,5.37301182747,52.1536815464,,0,amf,4b
amf|4a,,Amersfoort Spoor 4a,5.36961615086,52.1535893895,,0,amf,4a
ovn|2,,Overveen Spoor 2,4.60713922977,52.3909737149,,0,ovn,2
op|0,,Opheusden,5.63746958971,51.9261152749,,0,op,
ovn|0,,Overveen,4.60789561272,52.3910457372,,0,ovn,
ovn|1,,Overveen Spoor 1,4.60716605186,52.3910162736,,0,ovn,1
st,st,Soest,5.31043052673,52.1727407626,Europe/Amsterdam,1,,
sptz|1,,Santpoort Zuid Spoor 1,4.63131397963,52.4196407542,,0,sptz,1
sptz|0,,Santpoort Zuid,4.63101893663,52.4191843614,,0,sptz,
sptz|2,,Santpoort Zuid Spoor 2,4.63146686554,52.4196472975,,0,sptz,2
tl|0,,Tiel,5.42304039001,51.8893487354,,0,tl,
berfl|0,,Berlin-Schnefeld Flugh.,13.51198,52.390885,,0,berfl,
nm|4a,,Nijmegen Spoor 4a,5.85269272327,51.8440537357,,0,nm,4a
nm|4b,,Nijmegen Spoor 4b,5.8518075943,51.842482797,,0,nm,4b
ahbf,ahbf,Aachen Hbf,6.09053,50.768073,Europe/Amsterdam,1,,
hlgh|1,,Harlingen Haven Spoor 1,5.41131913662,53.1748088767,,0,hlgh,1
zvb|2,,Zevenbergen Spoor 2,4.61022645235,51.6416239298,,0,zvb,2
zvb|1,,Zevenbergen Spoor 1,4.61037665606,51.6415373746,,0,zvb,1
zvb|0,,Zevenbergen,4.60982680321,51.641643904,,0,zvb,
asd|13b,,Amsterdam Centraal Spoor 13b,4.90165650845,52.3788903119,,0,asd,13b
asd|13a,,Amsterdam Centraal Spoor 13a,4.89986479282,52.3795354111,,0,asd,13a
asd|8b,,Amsterdam Centraal Spoor 8b,4.9014633894,52.3787298543,,0,asd,8b
asd|8a,,Amsterdam Centraal Spoor 8a,4.89966630936,52.3792930907,,0,asd,8a
zv,zv,Zevenaar,6.07310593128,51.9230369693,Europe/Amsterdam,1,,
shl|5-6,,Schiphol Spoor 5-6,4.76198852062,52.3093871352,,0,shl,5-6
fn|2,,Franeker Spoor 2,5.54944217205,53.1823641693,,0,fn,2
da|0,,Daarlerveen,6.57578408718,52.4413066172,,0,da,
mg|0,,Mantgum,5.71346729994,53.1296487305,,0,mg,
ot|1,,Oisterwijk Spoor 1,5.19329309464,51.5819565939,,0,ot,1
ot|0,,Oisterwijk,5.19371688366,51.581886592,,0,ot,
ot|3,,Oisterwijk Spoor 3,5.19477367401,51.5824366038,,0,ot,3
ot|2,,Oisterwijk Spoor 2,5.19479513168,51.5823999366,,0,ot,2
sptn,sptn,Santpoort Noord,4.63278114796,52.4337391671,Europe/Amsterdam,1,,
kboi,kboi,Boisheim,6.27442,51.274429,Europe/Amsterdam,1,,
o,o,Oss,5.53030729294,51.7651308763,Europe/Amsterdam,1,,
hrlw|2,,Heerlen Woonboulevard Spoor 2,5.95111370087,50.8952513078,,0,hrlw,2
hrlw|1,,Heerlen Woonboulevard Spoor 1,5.95134973526,50.8956437984,,0,hrlw,1
hrlw|0,,Heerlen Woonboulevard,5.95122098923,50.8957791392,,0,hrlw,
hlg|2,,Harlingen Spoor 2,5.4252666235,53.1703667081,,0,hlg,2
elet|0,,Lette (Kr Coesfeld),7.18695,51.892503,,0,elet,
hlg|1,,Harlingen Spoor 1,5.42525589466,53.1704326285,,0,hlg,1
ksb,ksb,Siegburg,7.20334,50.794052,Europe/Amsterdam,1,,
mes|0,,Meerssen,5.75064539909,50.8828590858,,0,mes,
mes|1,,Meerssen Spoor 1,5.75024306774,50.882669556,,0,mes,1
mes|2,,Meerssen Spoor 2,5.75023233891,50.8825815598,,0,mes,2
hgv|2,,Hoogeveen Spoor 2,6.47271752357,52.7336021697,,0,hgv,2
hgv|3,,Hoogeveen Spoor 3,6.47267997265,52.7336119145,,0,hgv,3
hgv|0,,Hoogeveen,6.47301256657,52.7333747901,,0,hgv,
hgv|1,,Hoogeveen Spoor 1,6.47279798985,52.7335079697,,0,hgv,1
dei|1,,Deinum Spoor 1,5.72798073292,53.1887594077,,0,dei,1
tbr,tbr,Tilburg Reeshof,4.99356508255,51.573855661,Europe/Amsterdam,1,,
tbu,tbu,Tilburg Universiteit,5.05010604858,51.5651563853,Europe/Amsterdam,1,,
hlm|8,,Haarlem Spoor 8,4.63854253292,52.3883235402,,0,hlm,8
tg|1,,Tegelen Spoor 1,6.14332079887,51.3393205297,,0,tg,1
tg|0,,Tegelen,6.14306867123,51.3393741487,,0,tg,
edc|1,,Ede Centrum Spoor 1,5.66822648048,52.0433980818,,0,edc,1
tbg,tbg,Terborg,6.36395931244,51.9226168081,Europe/Amsterdam,1,,
gbg,gbg,Gramsbergen,6.67618989944,52.6102796771,Europe/Amsterdam,1,,
esem|0,,Selm,7.45311,51.708034,,0,esem,
g|0,,Gronau Westf,7.02152431011,52.2151767417,,0,g,
zb|0,,Zuidbroek,6.8677854538,53.1596380115,,0,zb,
zb|1,,Zuidbroek Spoor 1,6.86751723289,53.1594450248,,0,zb,1
gbr,gbr,Glanerbrug,6.97362005711,52.2187065889,Europe/Amsterdam,1,,
edc|0,,Ede Centrum,5.66848397255,52.0433386914,,0,edc,
shl,shl,Schiphol,4.76228356361,52.3094560107,Europe/Amsterdam,1,,
zl|12,,Zwolle Spoor 12,6.0891187191,52.5059562477,,0,zl,12
wf,wf,Wolfheze,5.79187631607,52.005745262,Europe/Amsterdam,1,,
zl|15,,Zwolle Spoor 15,6.09212815762,52.5050452451,,0,zl,15
wd,wd,Woerden,4.89258527756,52.0850970204,Europe/Amsterdam,1,,
zl|16,,Zwolle Spoor 16,6.09216034412,52.5050778978,,0,zl,16
hmn|0,,Hemmen-Dodewaard,5.67350775003,51.9224861272,,0,hmn,
hmn|1,,Hemmen-Dodewaard Spoor 1,5.6727540493,51.922398455,,0,hmn,1
hmn|2,,Hemmen-Dodewaard Spoor 2,5.67395031452,51.9222280727,,0,hmn,2
gvmw,gvmw,Den Haag Moerwijk,4.30855035782,52.0547047349,Europe/Amsterdam,1,,
lut,lut,Geleen-Lutterade,5.82459390163,50.975413037,Europe/Amsterdam,1,,
dld,dld,Den Dolder,5.24207979441,52.1402213242,Europe/Amsterdam,1,,
landry,landry,Landry,6.73582,45.570616,Europe/Amsterdam,1,,
hgz|2,,Hoogezand-Sappemeer Spoor 2,6.77148878574,53.159737721,,0,hgz,2
dln,dln,Dalen,6.75813943148,52.6945957245,Europe/Amsterdam,1,,
hgz|0,,Hoogezand-Sappemeer,6.77098989487,53.1600079003,,0,hgz,
hgz|1,,Hoogezand-Sappemeer Spoor 1,6.77148878574,53.1598020495,,0,hgz,1
ddr|3,,Dordrecht Spoor 3,4.66768741608,51.8072813918,,0,ddr,3
zbm,zbm,Zaltbommel,5.26313245296,51.8078253545,Europe/Amsterdam,1,,
otb|0,,Oosterbeek,5.84083199501,51.9949918717,,0,otb,
otb|1,,Oosterbeek Spoor 1,5.84068179131,51.9947705678,,0,otb,1
otb|2,,Oosterbeek Spoor 2,5.84057986736,51.9946549608,,0,otb,2
bspd|0,,Berlin-Spandau,13.19752,52.534511,,0,bspd,
zp|2,,Zutphen Spoor 2,6.19422,52.14468,,0,zp,2
zp|3,,Zutphen Spoor 3,6.19402527809,52.1448467799,,0,zp,3
zp|0,,Zutphen,6.19358003139,52.1441949654,,0,zp,
zp|1,,Zutphen Spoor 1,6.19415938854,52.1446657212,,0,zp,1
vry,vry,Venray,6.01389348507,51.5268451091,Europe/Amsterdam,1,,
amrn|0,,Alkmaar Noord,4.76371049881,52.6438902024,,0,amrn,
amrn|1,,Alkmaar Noord Spoor 1,4.76413965225,52.6438902024,,0,amrn,1
amrn|2,,Alkmaar Noord Spoor 2,4.76423084736,52.6438348682,,0,amrn,2
lc,lc,Lochem,6.42605781555,52.1668053764,Europe/Amsterdam,1,,
ts|0,,Stuttgart Hbf,9.18163,48.784052,,0,ts,
sdtb,sdtb,Sliedrecht Baanhoek,4.74259614944,51.8283783503,Europe/Amsterdam,1,,
ddr|1,,Dordrecht Spoor 1,4.66771960258,51.8074372842,,0,ddr,1
etn,etn,Etten-Leur,4.63662743568,51.5751325706,Europe/Amsterdam,1,,
wr,wr,Weener,7.34272420406,53.1636069127,Europe/Amsterdam,1,,
dl|0,,Dalfsen,6.25936388969,52.4984390954,,0,dl,
dl|1,,Dalfsen Spoor 1,6.25891327858,52.4984195008,,0,dl,1
dl|2,,Dalfsen Spoor 2,6.25882744789,52.4983084645,,0,dl,2
co,co,Coevorden,6.73604339361,52.6629844664,Europe/Amsterdam,1,,
cl,cl,Culemborg,5.22676706314,51.9470424849,Europe/Amsterdam,1,,
mtr|0,,Maastricht Randwyck,5.71750402451,50.8375192054,,0,mtr,
edd|0,,Dortmund-Derne,7.52836,51.567228,,0,edd,
elue|0,,Luenen Hbf,7.52953,51.616569,,0,elue,
ddr|20,,Dordrecht Spoor 20,4.6663248539,51.8076396119,,0,ddr,20
gnn|2,,Groningen Noord Spoor 2,6.55641049147,53.2300667871,,0,gnn,2
gnn|0,,Groningen Noord,6.5560027957,53.230222528,,0,gnn,
gnn|1,,Groningen Noord Spoor 1,6.55652314425,53.2299897192,,0,gnn,1
tgo|0,,Goeppingen,9.65165,48.700162,,0,tgo,
otb,otb,Oosterbeek,5.84069788456,51.9949159018,Europe/Amsterdam,1,,
edo,edo,Dortmund Hbf,7.45931,51.517853,Europe/Amsterdam,1,,
bspd,bspd,Berlin-Spandau,13.19752,52.534511,Europe/Amsterdam,1,,
hmn,hmn,Hemmen-Dodewaard,5.67344069481,51.9222876239,Europe/Amsterdam,1,,
hmh,hmh,Helmond 't Hout,5.63069969416,51.4678673875,Europe/Amsterdam,1,,
vs|1,,Vlissingen Spoor 1,3.59581232071,51.4444856294,,0,vs,1
vs|0,,Vlissingen,3.59558165073,51.4438169255,,0,vs,
vs|3,,Vlissingen Spoor 3,3.59560847282,51.4444521944,,0,vs,3
vs|2,,Vlissingen Spoor 2,3.59569966793,51.4444521944,,0,vs,2
hrlw,hrlw,Heerlen Woonboulevard,5.95094203949,50.8955761278,Europe/Amsterdam,1,,
ddr|5,,Dordrecht Spoor 5,4.66644287109,51.807278075,,0,ddr,5
cvm,cvm,Chevremont,6.05967879295,50.8755650167,Europe/Amsterdam,1,,
gn|7a,,Groningen Spoor 7a,6.56336545944,53.2103794669,,0,gn,7a
hmbh|0,,Helmond Brouwhuis,5.70164680481,51.4708682096,,0,hmbh,
gn|7b,,Groningen Spoor 7b,6.56570971012,53.210466208,,0,gn,7b
ddr|2b,,Dordrecht Spoor 2b,4.66917335987,51.8071686183,,0,ddr,2b
hrlk,hrlk,Heerlen De Kissel,5.99319219589,50.8903110574,Europe/Amsterdam,1,,
ddr|2a,,Dordrecht Spoor 2a,4.66650724411,51.8074704528,,0,ddr,2a
rbb,rbb,Baden-Baden,8.19049,48.790066,Europe/Amsterdam,1,,
vk|1,,Valkenburg Spoor 1,5.83267271519,50.8693565429,,0,vk,1
vk|0,,Valkenburg,5.83265125751,50.869075551,,0,vk,
vk|3,,Valkenburg Spoor 3,5.8327960968,50.8694445642,,0,vk,3
hlm|3a,,Haarlem Spoor 3a,4.63962078094,52.3878881041,,0,hlm,3a
vd,vd,Vorden,6.31756782532,52.107154262,Europe/Amsterdam,1,,
vg,vg,Vught,5.29214054346,51.6555970917,Europe/Amsterdam,1,,
vh,vh,Voorhout,4.48449254036,52.2241207768,Europe/Amsterdam,1,,
vst|4,,Voorschoten Spoor 4,4.4338363409,52.1261946974,,0,vst,4
vk,vk,Valkenburg,5.83277463913,50.8692041981,Europe/Amsterdam,1,,
vst|2,,Voorschoten Spoor 2,4.43363919854,52.1262753843,,0,vst,2
vst|3,,Voorschoten Spoor 3,4.43377062678,52.1262177508,,0,vst,3
vst|0,,Voorschoten,4.43438887596,52.1262432743,,0,vst,
vst|1,,Voorschoten Spoor 1,4.43358421326,52.1263025544,,0,vst,1
zd|2,,Zaandam Spoor 2,4.8139294982,52.4384632528,,0,zd,2
zd|0,,Zaandam,4.8142889142,52.43857117,,0,zd,
zd|1,,Zaandam Spoor 1,4.81405556202,52.4384926848,,0,zd,1
zd|4,,Zaandam Spoor 4,4.8136934638,52.43842074,,0,zd,4
zd|5,,Zaandam Spoor 5,4.81360763311,52.4383913079,,0,zd,5
vz,vz,Vriezenveen,6.60051941872,52.4019213912,Europe/Amsterdam,1,,
msw|2,,Maassluis West Spoor 2,4.2367208004,51.9251972639,,0,msw,2
msw|0,,Maassluis West,4.2360958457,51.9259697176,,0,msw,
msw|1,,Maassluis West Spoor 1,4.23547357321,51.9261036965,,0,msw,1
hnp|0,,Hindeloopen,5.4233944416,52.9470734589,,0,hnp,
hlds|1,,Hoek van Holland Strand Spoor 1,4.11958068609,51.9817843902,,0,hlds,1
hlds|0,,Hoek van Holland Strand,4.11897718906,51.9818802064,,0,hlds,
zl|9,,Zwolle Spoor 9,6.09138250351,52.5045587163,,0,zl,9
zl|3,,Zwolle Spoor 3,6.09147906303,52.5049407561,,0,zl,3
zl|0,,Zwolle,6.09102845192,52.5055676862,,0,zl,
zl|1,,Zwolle Spoor 1,6.09161317348,52.5050746326,,0,zl,1
zl|6,,Zwolle Spoor 6,6.09133958817,52.5047938181,,0,zl,6
zl|7,,Zwolle Spoor 7,6.09168291092,52.5046501449,,0,zl,7
zl|4,,Zwolle Spoor 4,6.09007358551,52.5054272807,,0,zl,4
zl|5,,Zwolle Spoor 5,6.09143614769,52.504881981,,0,zl,5
landry|0,,Landry,6.73582,45.570616,,0,landry,
mss|4,,Maassluis Spoor 4,4.25346314907,51.9164909398,,0,mss,4
mech,mech,Mechelen,4.48370933533,51.0176154241,Europe/Amsterdam,1,,
mss|3,,Maassluis Spoor 3,4.25353288651,51.9165554618,,0,mss,3
mss|0,,Maassluis,4.25300717354,51.9169558271,,0,mss,
vg|1,,Vught Spoor 1,5.29188036919,51.6556336999,,0,vg,1
vg|0,,Vught,5.29231220484,51.6556070758,,0,vg,
ebbs|0,,Ebbsfleet International,0.31635,51.444011,,0,ebbs,
vg|2,,Vught Spoor 2,5.29201447964,51.6556270439,,0,vg,2
hrn|1,,Haren Spoor 1,6.61785721779,53.1754085262,,0,hrn,1
hrn|0,,Haren,6.61787331104,53.1749101586,,0,hrn,
hrn|2,,Haren Spoor 2,6.61802887917,53.175443894,,0,hrn,2
kbry|0,,Breyell,6.23999,51.295361,,0,kbry,
zh|2,,Zuidhorn Spoor 2,6.40706777573,53.2479861168,,0,zh,2
zh|0,,Zuidhorn,6.40620946884,53.2484964743,,0,zh,
zh|1,,Zuidhorn Spoor 1,6.40712141991,53.248085621,,0,zh,1
wdn|0,,Wierden,6.59211874008,52.3612659613,,0,wdn,
sk|1,,Sneek Spoor 1,5.65155923367,53.0324844823,,0,sk,1
wdn|2,,Wierden Spoor 2,6.59226357937,52.3615182085,,0,wdn,2
wdn|3,,Wierden Spoor 3,6.59228503704,52.361446138,,0,wdn,3
sptz,sptz,Santpoort Zuid,4.63137567043,52.4197536249,Europe/Amsterdam,1,,
hrlk|1,,Heerlen De Kissel Spoor 1,5.99352478981,50.8901960042,,0,hrlk,1
hrlk|0,,Heerlen De Kissel,5.99274158478,50.8903787356,,0,hrlk,
asa|0,,Amsterdam Amstel,4.91741716862,52.346620055,,0,asa,
asa|1,,Amsterdam Amstel Spoor 1,4.91761565208,52.3466528253,,0,asa,1
asa|4,,Amsterdam Amstel Spoor 4,4.91718113422,52.3465840076,,0,asa,4
hrt|0,,Horst-Sevenum,6.04140222073,51.4272500053,,0,hrt,
kbd|0,,Krabbendijke,4.11709427834,51.4330895772,,0,kbd,
kbd|1,,Krabbendijke Spoor 1,4.11737322807,51.4331531194,,0,kbd,1
kbd|2,,Krabbendijke Spoor 2,4.11662220955,51.4335678138,,0,kbd,2
sdt|2,,Sliedrecht Spoor 2,4.77845996618,51.8295536133,,0,sdt,2
lw|5b,,Leeuwarden Spoor 5b,5.79423129559,53.1963090295,,0,lw,5b
sdt|0,,Sliedrecht,4.7784358263,51.8295171458,,0,sdt,
sdt|1,,Sliedrecht Spoor 1,4.77872014046,51.8293248621,,0,sdt,1
dussel|0,,Duesseldorf Hbf,6.79429,51.219948,,0,dussel,
ldl|0,,Leiden Lammenschans,4.49302732944,52.147036708,,0,ldl,
gdm|3,,Geldermalsen Spoor 3,5.27174,51.882596,,0,gdm,3
berch|0,,Antwerpen-Berchem,4.43212509155,51.1994351214,,0,berch,
nvp,nvp,Nieuw Vennep,4.64559137821,52.259016991,Europe/Amsterdam,1,,
ut|9b,,Utrecht Centraal Spoor 9b,5.1108366251,52.0888646277,,0,ut,9b
ut|9a,,Utrecht Centraal Spoor 9a,5.10908782482,52.0906840407,,0,ut,9a
amf|5a,,Amersfoort Spoor 5a,5.3696000576,52.1536716724,,0,amf,5a
hks|2,,Hoogkarspel Spoor 2,5.18278285861,52.6903657376,,0,hks,2
hks|1,,Hoogkarspel Spoor 1,5.18276810646,52.6903876852,,0,hks,1
amf|5b,,Amersfoort Spoor 5b,5.3729903698,52.1537704118,,0,amf,5b
kwo,kwo,Wuppertal Oberbarmen,7.22149,51.273869,Europe/Amsterdam,1,,
kkd|0,,Koeln Deutz,6.9746,50.940906,,0,kkd,
asdz|4,,Amsterdam Zuid Spoor 4,4.87268328667,52.3388904994,,0,asdz,4
asdz|0,,Amsterdam Zuid,4.87299442291,52.3407734434,,0,asdz,
asdz|3,,Amsterdam Zuid Spoor 3,4.8726940155,52.3388462517,,0,asdz,3
vss,vss,Vlissingen Souburg,3.59528660774,51.4648596839,Europe/Amsterdam,1,,
vst,vst,Voorschoten,4.43370893598,52.1262416276,Europe/Amsterdam,1,,
vsv,vsv,Varsseveld,6.45880758762,51.9373234191,Europe/Amsterdam,1,,
kdr,kdr,Dueren,6.49691,50.809201,Europe/Amsterdam,1,,
est,est,Elst,5.8549618721,51.9172503083,Europe/Amsterdam,1,,
omn|2,,Ommen Spoor 2,6.41673982143,52.509655573,,0,omn,2
enhf|0,,Muenster (W) Zentrum Nord,7.63856,51.984965,,0,enhf,
ese,ese,Enschede De Eschmarke,6.951212883,52.2212782051,Europe/Amsterdam,1,,
esd,esd,Enschede Drienerlo,6.83861911297,52.2375408439,Europe/Amsterdam,1,,
utzl|3,,Utrecht Zuilen Spoor 3,5.08939504623,52.1031526037,,0,utzl,3
utzl|2,,Utrecht Zuilen Spoor 2,5.08946210146,52.1031888493,,0,utzl,2
kswe,kswe,Schwelm,7.2907,51.290649,Europe/Amsterdam,1,,
fvs|0,,Vise,5.69588,50.741848,,0,fvs,
hnp|1,,Hindeloopen Spoor 1,5.42313694954,52.9464625417,,0,hnp,1
omn|0,,Ommen,6.41684710979,52.5098579984,,0,omn,
aml|2b,,Almelo Spoor 2b,6.6546356678,52.3574788052,,0,aml,2b
aml|2a,,Almelo Spoor 2a,6.65220022202,52.3590906795,,0,aml,2a
akl|1,,Arkel Spoor 1,4.99288111925,51.8721357819,,0,akl,1
akl|0,,Arkel,4.99289184809,51.8723030422,,0,akl,
avat|2,,Amersfoort Vathorst Spoor 2,5.4330021143,52.1923146848,,0,avat,2
avat|3,,Amersfoort Vathorst Spoor 3,5.43316304684,52.192252204,,0,avat,3
ut|7a,,Utrecht Centraal Spoor 7a,5.10933458805,52.0907367762,,0,ut,7a
ut|7b,,Utrecht Centraal Spoor 7b,5.11113166809,52.0890228405,,0,ut,7b
ashd,ashd,Amsterdam Holendrecht,4.95985507965,52.2982836496,Europe/Amsterdam,1,,
eweis,eweis,Eschweiler-Weisweiler,6.32058,50.824334,Europe/Amsterdam,1,,
ndb,ndb,Naarden-Bussum,5.15704572201,52.2807649886,Europe/Amsterdam,1,,
emn|1,,Emmen Spoor 1,6.89962863922,52.7906369563,,0,emn,1
emn|0,,Emmen,6.89916729927,52.7905688318,,0,emn,
emn|2,,Emmen Spoor 2,6.89980566502,52.7906207362,,0,emn,2
krg,krg,Kruiningen-Yerseke,4.0362739563,51.4654311629,Europe/Amsterdam,1,,
edkd,edkd,Dortmund-Kirchderne,7.51024,51.546969,Europe/Amsterdam,1,,
chamb,chamb,Chambery,5.91867,45.571982,Europe/Amsterdam,1,,
brusz,brusz,Brussel-Zuid/Midi,4.33505058289,50.8348902401,Europe/Amsterdam,1,,
mannhe,mannhe,Mannheim Hbf,8.46986,49.479633,Europe/Amsterdam,1,,
rta|2,,Rotterdam Alexander Spoor 2,4.55273598433,51.9517954292,,0,rta,2
rta|0,,Rotterdam Alexander,4.55243557692,51.9519541275,,0,rta,
ut|4a,,Utrecht Centraal Spoor 4a,5.10960280895,52.0908785026,,0,ut,4a
brusn,brusn,Brussel-Noord,4.36170101166,50.8605501956,Europe/Amsterdam,1,,
kmr|1,,Klimmen-Ransdaal Spoor 1,5.89046359062,50.8663366374,,0,kmr,1
tbu|2,,Tilburg Universiteit Spoor 2,5.04966616631,51.5652197437,,0,tbu,2
kmr|0,,Klimmen-Ransdaal,5.889980793,50.8665296192,,0,kmr,
brusc,brusc,Brussel-Centraal,4.3572807312,50.8454052127,Europe/Amsterdam,1,,
tbu|3,,Tilburg Universiteit Spoor 3,5.04959642887,51.5650863576,,0,tbu,3
eenp,eenp,Ennepetal (Gevelsberg),7.3432,51.304434,Europe/Amsterdam,1,,
tbu|0,,Tilburg Universiteit,5.05109846592,51.5648562656,,0,tbu,
tbu|1,,Tilburg Universiteit Spoor 1,5.04967689514,51.5652397515,,0,tbu,1
asd|5,,Amsterdam Centraal Spoor 5,4.90029394627,52.3788968612,,0,asd,5
asd|4,,Amsterdam Centraal Spoor 4,4.90025639534,52.3788477416,,0,asd,4
asd|7,,Amsterdam Centraal Spoor 7,4.90043878555,52.3789787271,,0,asd,7
asd|1,,Amsterdam Centraal Spoor 1,4.89943563938,52.3787986219,,0,asd,1
asd|0,,Amsterdam Centraal,4.89975750446,52.378205907,,0,asd,
asd|2,,Amsterdam Centraal Spoor 2,4.9001544714,52.3787069317,,0,asd,2
ddr|3a,,Dordrecht Spoor 3a,4.66649651527,51.8074240168,,0,ddr,3a
ddr|3b,,Dordrecht Spoor 3b,4.66914117336,51.8071321326,,0,ddr,3b
omn|1,,Ommen Spoor 1,6.41674518585,52.5096359834,,0,omn,1
hz,hz,Herzogenrath,6.09470844269,50.8708765783,Europe/Amsterdam,1,,
avtgv|0,,Avignon TGV,4.78566169739,43.9218225968,,0,avtgv,
hr,hr,Heerenveen,5.91594994068,52.9605259964,Europe/Amsterdam,1,,
ht,ht,Hertogenbosch ('s),5.29457330704,51.6903332437,Europe/Amsterdam,1,,
hk,hk,Heemskerk,4.68630462885,52.4947878166,Europe/Amsterdam,1,,
hn,hn,Hoorn,5.05458533764,52.6448569126,Europe/Amsterdam,1,,
hm,hm,Helmond,5.6617462635,51.4756330294,Europe/Amsterdam,1,,
hb,hb,Hoensbroek,5.93024343252,50.9057070066,Europe/Amsterdam,1,,
hd,hd,Harderwijk,5.62037587166,52.3378367369,Europe/Amsterdam,1,,
dt|0,,Delft,4.35579746962,52.005928536,,0,dt,
dt|1,,Delft Spoor 1,4.35630172491,52.0065493506,,0,dt,1
dt|2,,Delft Spoor 2,4.3561783433,52.0065262353,,0,dt,2
dt|3,,Delft Spoor 3,4.35609251261,52.0065113755,,0,dt,3
dmn,dmn,Diemen,4.96679663658,52.3454763561,Europe/Amsterdam,1,,
fnaf|0,,Frankfurt Flughafen Fernb,8.57014,50.053196,,0,fnaf,
ddn|2,,Delden Spoor 2,6.71519994736,52.2600808394,,0,ddn,2
ut|3,,Utrecht Centraal Spoor 3,5.11020898819,52.0904599141,,0,ut,3
ut|2,,Utrecht Centraal Spoor 2,5.11025726795,52.0904665061,,0,ut,2
ut|1,,Utrecht Centraal Spoor 1,5.11039674282,52.09049617,,0,ut,1
ut|0,,Utrecht Centraal,5.11052012444,52.0905324258,,0,ut,
ut|7,,Utrecht Centraal Spoor 7,5.11013388634,52.0900182496,,0,ut,7
ut|5,,Utrecht Centraal Spoor 5,5.11024653912,52.0900479138,,0,ut,5
ut|4,,Utrecht Centraal Spoor 4,5.11036455631,52.0901006501,,0,ut,4
ut|9,,Utrecht Centraal Spoor 9,5.10983884335,52.0899160729,,0,ut,9
ut|8,,Utrecht Centraal Spoor 8,5.10992467403,52.0899358491,,0,ut,8
ddn|1,,Delden Spoor 1,6.71520531178,52.2600578552,,0,ddn,1
rheine|0,,Rheine,7.4352,52.276107,,0,rheine,
zl|3b,,Zwolle Spoor 3b,6.09273970127,52.5045064712,,0,zl,3b
zvb,zvb,Zevenbergen,4.60995286703,51.6413925608,Europe/Amsterdam,1,,
cvm|1,,Chevremont Spoor 1,6.05962514877,50.8759509032,,0,cvm,1
cvm|0,,Chevremont,6.05985045433,50.8753754572,,0,cvm,
hbzm,hbzm,Hardinxveld Blauwe Zoom,4.81545031071,51.8296381515,Europe/Amsterdam,1,,
eabg,eabg,Altenberge,7.48124,52.052245,Europe/Amsterdam,1,,
zvt,zvt,Zandvoort aan Zee,4.53125953674,52.3757694703,Europe/Amsterdam,1,,
dvnk,dvnk,De Vink,4.45632733405,52.1472033554,Europe/Amsterdam,1,,
swd|2,,Sauwerd Spoor 2,6.54048085213,53.2915596093,,0,swd,2
swd|1,,Sauwerd Spoor 1,6.54030919075,53.2915596093,,0,swd,1
swd|0,,Sauwerd,6.5402340889,53.2920309688,,0,swd,
em|0,,Emmerich,6.25409,51.834329,,0,em,
hvsn,hvsn,Hilversum Noord,5.17391145229,52.237997472,Europe/Amsterdam,1,,
cps,cps,Capelle Schollevaar,4.58413928747,51.954106418,Europe/Amsterdam,1,,
mgzb,mgzb,Guenzburg,10.27877,48.460218,Europe/Amsterdam,1,,
hnk,hnk,Hoorn Kersenboogerd,5.08487418294,52.653322851,Europe/Amsterdam,1,,
zl|6a,,Zwolle Spoor 6a,6.09067440033,52.5050256534,,0,zl,6a
hno,hno,Heino,6.22245937586,52.4268589853,Europe/Amsterdam,1,,
zl|6b,,Zwolle Spoor 6b,6.09258949757,52.5043595318,,0,zl,6b
hnp,hnp,Hindeloopen,5.42302966118,52.9464625417,Europe/Amsterdam,1,,
eop,eop,Ochtrup,7.18261,52.201735,Europe/Amsterdam,1,,
hvsp,hvsp,Hilversum Sportpark,5.18733859062,52.2165571623,Europe/Amsterdam,1,,
bischo,bischo,Bischofshofen,13.221247,47.417932,Europe/Amsterdam,1,,
bischo|0,,Bischofshofen,13.221247,47.417932,,0,bischo,
hopf,hopf,Hopfgarten,12.149302,47.455085,Europe/Amsterdam,1,,
hopf|0,,Hopfgarten,12.149302,47.455085,,0,hopf,
kirchb,kirchb,Kirchberg in Tirol,12.309108,47.448969,Europe/Amsterdam,1,,
kirchb|0,,Kirchberg in Tirol,12.309108,47.448969,,0,kirchb,
kitzb,kitzb,Kitzbuehel,12.390937,47.454403,Europe/Amsterdam,1,,
kitzb|0,,Kitzbuehel,12.390937,47.454403,,0,kitzb,
land,land,Landeck,10.57908,47.148086,Europe/Amsterdam,1,,
land|0,,Landeck,10.57908,47.148086,,0,land,
oetz,oetz,Oetztal,10.858703,47.238551,Europe/Amsterdam,1,,
oetz|0,,Oetztal,10.858703,47.238551,,0,oetz,
saalf,saalf,Saalfelden,12.829751,47.426853,Europe/Amsterdam,1,,
saalf|0,,Saalfelden,12.829751,47.426853,,0,saalf,
schwar,schwar,Schwarzach-St. Veit,13.154765,47.318607,Europe/Amsterdam,1,,
schwar|0,,Schwarzach-St. Veit,13.154765,47.318607,,0,schwar,
stjoh,stjoh,St. Johann in Tirol,12.430714,47.519574,Europe/Amsterdam,1,,
stjoh|0,,St. Johann in Tirol,12.430714,47.519574,,0,stjoh,
stjohp,stjohp,St. Johann im Pongau,13.194958,47.348379,Europe/Amsterdam,1,,
stjohp|0,,St. Johann im Pongau,13.194958,47.348379,,0,stjohp,
wurzb,wurzb,Wuerzburg Hbf,9.935785,49.801554,Europe/Amsterdam,1,,
wurzb|0,,Wuerzburg Hbf,9.935785,49.801554,,0,wurzb,
zell,zell,Zell am See,12.796795,47.320643,Europe/Amsterdam,1,,
zell|0,,Zell am See,12.796795,47.320643,,0,zell,
